,name,upjong,address_x,category,rating,평점_건수,평점_합계,평점_평균,평점_표준편차,Column1,address_y,Latitude,Longitude,상태
0,설레임,한식,"제주특별자치도 제주시 애월읍 일주서로 5999-1, 2층",애월읍,5.0,5042.0,23596.5,4.679988099960333,0.9048033341311639,0.0,"제주특별자치도 제주시 애월읍 일주서로 5999-1, 2층",33.4471343,126.3057656,정좌표
1,해물섬,한식,"제주특별자치도 제주시 애월읍 애월로11길 19, 1층",애월읍,4.0,43.0,196.0,4.558139534883721,0.7575752542029937,82608.0,"제주특별자치도 제주시 애월읍 애월로11길 19, 1층",33.4659677,126.3206294,정좌표
2,엄지흑돼지,한식,"제주특별자치도 제주시 애월읍 일주서로 6701, 1층",애월읍,5.0,64.0,296.5,4.6328125,0.878500650459146,82696.0,"제주특별자치도 제주시 애월읍 일주서로 6701, 1층",33.4718805,126.3681801,정좌표
3,비금향,기타,"제주특별자치도 제주시 애월읍 항몽로 133, 1층",애월읍,4.0,3.0,13.5,4.5,0.5,82828.0,"제주특별자치도 제주시 애월읍 항몽로 133, 1층",33.4725624,126.4093289,정좌표
4,우미노식탁,기타,"제주특별자치도 제주시 애월읍 금성5길 42-24, 1층",애월읍,5.0,127.0,581.0,4.574803149606299,0.8215324920814495,82842.0,"제주특별자치도 제주시 애월읍 금성5길 42-24, 1층",33.4478775,126.3012418,정좌표
5,모슬포항부두식당2호점,중국식,"제주특별자치도 제주시 애월읍 애월로 33, 1층",애월읍,5.0,130.0,609.5,4.688461538461539,0.8075836880707314,83106.0,"제주특별자치도 제주시 애월읍 애월로 33, 1층",33.4659319,126.3192857,정좌표
6,한양뼈감탕,한식,제주특별자치도 제주시 애월읍 하귀로 38,애월읍,5.0,23.0,102.5,4.456521739130435,0.8779242496606942,83370.0,제주특별자치도 제주시 애월읍 하귀로 38,33.4800276,126.4012957,정좌표
7,달빛해녀촌횟집,한식,제주특별자치도 제주시 애월읍 애월해안로 270,애월읍,4.0,9.0,35.5,3.9444444444444446,1.4018836534383934,83420.0,제주특별자치도 제주시 애월읍 애월해안로 270,33.4683238,126.3401314,정좌표
8,즐거운밥상,탕류(보신용),"제주특별자치도 제주시 애월읍 광성로 249, 1층",애월읍,4.0,1.0,4.0,4.0,,83440.0,"제주특별자치도 제주시 애월읍 광성로 249, 1층",33.4601827,126.4339961,정좌표
9,곽지가,중국식,제주특별자치도 제주시 애월읍 일주서로 6025,애월읍,4.0,10.0,45.0,4.5,0.9428090415820632,83442.0,제주특별자치도 제주시 애월읍 일주서로 6025,33.4487544,126.307815,정좌표
10,연다라,기타,"제주특별자치도 제주시 애월읍 하가로 167-2, 1층",애월읍,5.0,10.0,49.0,4.9,0.31622776601683794,83462.0,"제주특별자치도 제주시 애월읍 하가로 167-2, 1층",33.4552718,126.3482713,정좌표
11,솔향바다가든,한식,"제주특별자치도 제주시 애월읍 일주서로 6113, 지하1층",애월읍,5.0,9.0,39.5,4.388888888888889,1.4743171677461777,83642.0,"제주특별자치도 제주시 애월읍 일주서로 6113, 지하1층",33.4565568,126.309107,정좌표
12,바이탈,기타,"제주특별자치도 제주시 애월읍 애월해안로 664, 지하1층",애월읍,5.0,3.0,15.0,5.0,0.0,83662.0,"제주특별자치도 제주시 애월읍 애월해안로 664, 지하1층",33.4782235,126.3665625,정좌표
13,애월리식당,기타,"제주특별자치도 제주시 애월읍 애월해안로 907, 1층",애월읍,5.0,10.0,48.0,4.8,0.2581988897471611,83668.0,"제주특별자치도 제주시 애월읍 애월해안로 907, 1층",33.484835,126.3925123,정좌표
14,별인애월,기타,"제주특별자치도 제주시 애월읍 신용로 25, 1층",애월읍,5.0,9.0,44.5,4.944444444444445,0.16666666666666669,83688.0,"제주특별자치도 제주시 애월읍 신용로 25, 1층",33.4687216,126.3668421,정좌표
15,키친앤정지,기타,"제주특별자치도 제주시 애월읍 일주서로 5990, 1층",애월읍,4.5,7.0,32.5,4.642857142857143,0.37796447300922725,83708.0,"제주특별자치도 제주시 애월읍 일주서로 5990, 1층",33.4461141,126.3055907,정좌표
16,애월짬뽕,기타,"제주특별자치도 제주시 애월읍 유수암평화5길 15-22, 1층",애월읍,2.5,10.0,41.5,4.15,1.0814085465005558,83828.0,"제주특별자치도 제주시 애월읍 유수암평화5길 15-22, 1층",33.4227938,126.4053905,정좌표
17,애월꼴통돼지,기타,"제주특별자치도 제주시 애월읍 애월로7길 10, 1층",애월읍,4.0,3.0,14.0,4.666666666666667,0.5773502691896257,83848.0,"제주특별자치도 제주시 애월읍 애월로7길 10, 1층",33.4651308,126.3191439,정좌표
18,일품순두부하귀점,기타,"제주특별자치도 제주시 애월읍 하귀9길 18, 1층",애월읍,2.5,9.0,34.5,3.8333333333333335,1.6393596310755,83854.0,"제주특별자치도 제주시 애월읍 하귀9길 18, 1층",33.4826863,126.415916,정좌표
19,애월오누이,한식,"제주특별자치도 제주시 애월읍 애월로9길 54, 나동 1층",애월읍,5.0,10.0,46.0,4.6,0.5676462121975467,83874.0,"제주특별자치도 제주시 애월읍 애월로9길 54, 나동 1층",33.4666642,126.3188712,정좌표
20,추닭집하귀점,기타,제주특별자치도 제주시 애월읍 하광로 37,애월읍,4.5,8.0,35.5,4.4375,0.8634441002668988,83894.0,제주특별자치도 제주시 애월읍 하광로 37,33.4714582,126.4186381,정좌표
21,광령힐식당,기타,"제주특별자치도 제주시 애월읍 광령남7길 1, 나동 1층",애월읍,5.0,2.0,10.0,5.0,0.0,83914.0,"제주특별자치도 제주시 애월읍 광령남7길 1, 나동 1층",33.4469975,126.4322086,정좌표
22,골든팝,기타,"제주특별자치도 제주시 애월읍 하귀로 30, 1층 제1호",애월읍,4.5,7.0,33.0,4.714285714285714,0.39339789623472154,83918.0,"제주특별자치도 제주시 애월읍 하귀로 30, 1층 제1호",33.4799386,126.4006906,정좌표
23,하늘만큼땅만큼,기타,"제주특별자치도 제주시 애월읍 가문동상4길 5, 2층",애월읍,5.0,9.0,45.0,5.0,0.0,83932.0,"제주특별자치도 제주시 애월읍 가문동상4길 5, 2층",33.4846961,126.3876815,정좌표
24,칠돈가유수암점,기타,"제주특별자치도 제주시 애월읍 유수암평화5길 8, 1층",애월읍,5.0,10.0,50.0,5.0,0.0,84076.0,"제주특별자치도 제주시 애월읍 유수암평화5길 8, 1층",33.424382,126.4051687,정좌표
25,한끼국밥하귀외도점,기타,"제주특별자치도 제주시 애월읍 하귀동남1길 2-5, 1층",애월읍,5.0,9.0,43.5,4.833333333333333,0.3535533905932737,84096.0,"제주특별자치도 제주시 애월읍 하귀동남1길 2-5, 1층",33.4841816,126.4123496,정좌표
26,용철이네횟집,기타,"제주특별자치도 제주시 애월읍 하귀동남1길 25, 1층",애월읍,5.0,9.0,45.0,5.0,0.0,84114.0,"제주특별자치도 제주시 애월읍 하귀동남1길 25, 1층",33.48518,126.4146088,정좌표
27,스나쿠타카,기타,"제주특별자치도 제주시 애월읍 일주서로 7063, 1층",애월읍,4.5,10.0,42.0,4.2,1.456784892227477,84134.0,"제주특별자치도 제주시 애월읍 일주서로 7063, 1층",33.4836002,126.4040726,정좌표
28,육장갈비하귀점,기타,"제주특별자치도 제주시 애월읍 하광로 19, 1층",애월읍,3.5,10.0,41.0,4.1,0.9944289260117533,84154.0,"제주특별자치도 제주시 애월읍 하광로 19, 1층",33.4621944,126.4227085,정좌표
29,황동차이나,중국식,"제주특별자치도 제주시 애월읍 장소로 88, 1층",애월읍,4.0,10.0,44.5,4.45,0.43779751788545646,84174.0,"제주특별자치도 제주시 애월읍 장소로 88, 1층",33.4343134,126.3827145,정좌표
30,맘스터치제주관광대점,기타,"제주특별자치도 제주시 애월읍 광령중길 133-2, 1층 104호",애월읍,5.0,8.0,34.5,4.3125,1.032939633141398,84194.0,"제주특별자치도 제주시 애월읍 광령중길 133-2, 1층 104호",33.4538948,126.4351433,정좌표
31,마트료식당,기타,"제주특별자치도 제주시 애월읍 유수암로 138, 1층",애월읍,5.0,10.0,50.0,5.0,0.0,84354.0,"제주특별자치도 제주시 애월읍 유수암로 138, 1층",33.4322292,126.4015501,정좌표
32,연월,기타,"제주특별자치도 제주시 애월읍 고하상로 102, 1층",애월읍,5.0,9.0,39.5,4.388888888888889,0.7406828681096324,84374.0,"제주특별자치도 제주시 애월읍 고하상로 102, 1층",33.4570309,126.3469195,정좌표
33,하귀포장마차,한식,제주특별자치도 제주시 애월읍 항몽로 27,애월읍,5.0,2.0,10.0,5.0,0.0,84394.0,제주특별자치도 제주시 애월읍 항몽로 27,33.4811919,126.405453,정좌표
34,하귀1629,기타,"제주특별자치도 제주시 애월읍 하귀12길 22, 1층",애월읍,5.0,26.0,118.5,4.5576923076923075,0.6830362080727943,84398.0,"제주특별자치도 제주시 애월읍 하귀12길 22, 1층",33.4863013,126.4087743,정좌표
35,순여네국수,한식,"제주특별자치도 제주시 애월읍 고하상로 125-1, 1층",애월읍,5.0,2.0,9.0,4.5,0.7071067811865476,84506.0,"제주특별자치도 제주시 애월읍 고하상로 125-1, 1층",33.4554941,126.3492544,정좌표
36,통큰뼈감탕,한식,"제주특별자치도 제주시 애월읍 하귀동남1길 50-9, 1층",애월읍,4.0,16.0,68.5,4.28125,1.1685995892520245,84514.0,"제주특별자치도 제주시 애월읍 하귀동남1길 50-9, 1층",33.48518,126.4146088,정좌표
37,구엄애초밥,식육(숯불구이),"제주특별자치도 제주시 애월읍 애월해안로 715, 지하1층",애월읍,5.0,13.0,52.0,4.0,1.4860462083439174,84578.0,"제주특별자치도 제주시 애월읍 애월해안로 715, 지하1층",33.4840282,126.3774019,정좌표
38,엄가네,한식,"제주특별자치도 제주시 애월읍 일주서로 6281, 1층",애월읍,4.5,10.0,39.5,3.95,1.5174906186786719,84630.0,"제주특별자치도 제주시 애월읍 일주서로 6281, 1층",33.4621806,126.3252437,정좌표
39,애월포구횟집,식육(숯불구이),"제주특별자치도 제주시 애월읍 애월로11길 22, 2층",애월읍,5.0,104.0,507.0,4.875,0.49143143404643125,84674.0,"제주특별자치도 제주시 애월읍 애월로11길 22, 2층",33.4600513,126.3113009,정좌표
40,기찬밥상,호프/통닭,제주특별자치도 제주시 애월읍 광성로 293,애월읍,5.0,23.0,109.5,4.760869565217392,0.47361197239433983,85090.0,제주특별자치도 제주시 애월읍 광성로 293,33.4610064,126.4386947,정좌표
41,뿔난돼지,식육(숯불구이),"제주특별자치도 제주시 애월읍 고내로7길 45, 1층",애월읍,5.0,82.0,393.0,4.7926829268292686,0.4710850327700613,302158.0,"제주특별자치도 제주시 애월읍 고내로7길 45, 1층",33.4665819,126.3370935,정좌표
42,송화,한식,"제주특별자치도 제주시 애월읍 유수암평화5길 20, 1층",애월읍,5.0,7.0,34.0,4.857142857142857,0.37796447300922725,302662.0,"제주특별자치도 제주시 애월읍 유수암평화5길 20, 1층",33.424382,126.4051687,정좌표
43,파랑카페,기타,"제주특별자치도 제주시 애월읍 유수암평화5길 53-2, 1층",애월읍,4.0,22.0,101.0,4.590909090909091,0.5698028822981897,302830.0,"제주특별자치도 제주시 애월읍 유수암평화5길 53-2, 1층",33.424382,126.4051687,정좌표
44,화끈한얼큰이,통닭(치킨),제주특별자치도 제주시 애월읍 하귀로 50,애월읍,5.0,7.0,33.0,4.714285714285714,0.39339789623472166,302962.0,제주특별자치도 제주시 애월읍 하귀로 50,33.4801883,126.4025752,정좌표
45,애월밥집,분식,제주특별자치도 제주시 애월읍 애월로 114,애월읍,4.5,7.0,29.0,4.142857142857143,1.4351041110399654,303010.0,제주특별자치도 제주시 애월읍 애월로 114,33.4644325,126.3194381,정좌표
46,연화반점,기타,"제주특별자치도 제주시 애월읍 하가로 215, 1층",애월읍,5.0,18.0,80.0,4.444444444444445,0.7648315633271408,303052.0,"제주특별자치도 제주시 애월읍 하가로 215, 1층",33.4587799,126.3533392,정좌표
47,돈삼겹하귀점,한식,"제주특별자치도 제주시 애월읍 하귀9길 52, 1층",애월읍,5.0,24.0,108.0,4.5,0.5897678246195885,303168.0,"제주특별자치도 제주시 애월읍 하귀9길 52, 1층",33.4826863,126.415916,정좌표
48,주관이네,한식,"제주특별자치도 제주시 애월읍 천덕로 45, 1층",애월읍,4.0,1.0,4.0,4.0,,303300.0,"제주특별자치도 제주시 애월읍 천덕로 45, 1층",33.4446794,126.310259,정좌표
49,제주돈아고내점,식육(숯불구이),"제주특별자치도 제주시 애월읍 애월해안로 212-1, 1층",애월읍,0.5,76.0,324.5,4.269736842105263,1.0659605667305716,303306.0,"제주특별자치도 제주시 애월읍 애월해안로 212-1, 1층",33.4782235,126.3665625,정좌표
50,꽃밥,한식,제주특별자치도 제주시 애월읍 일주서로 6059,애월읍,5.0,79.0,370.5,4.689873417721519,0.5506627560957705,303512.0,제주특별자치도 제주시 애월읍 일주서로 6059,33.4515529,126.3085533,정좌표
51,도도돈까스,한식,"제주특별자치도 제주시 애월읍 광령중길 133-1, 101동 1층 101~102호",애월읍,5.0,17.0,76.5,4.5,0.8477912478906586,303714.0,"제주특별자치도 제주시 애월읍 광령중길 133-1, 101동 1층 101~102호",33.4538948,126.4351433,정좌표
52,오맛짱치킨,호프/통닭,"제주특별자치도 제주시 애월읍 평화로 2175, 지하1층 제1호",애월읍,4.0,10.0,40.5,4.05,1.0658851303546317,303790.0,"제주특별자치도 제주시 애월읍 평화로 2175, 지하1층 제1호",33.4135888,126.3946902,정좌표
53,장인의집,기타,"제주특별자치도 제주시 애월읍 애월로19길 31, 1층",애월읍,5.0,2741.0,11974.5,4.36866107260124,1.1188853267883858,303810.0,"제주특별자치도 제주시 애월읍 애월로19길 31, 1층",33.4657644,126.326928,정좌표
54,어클락,기타,"제주특별자치도 제주시 애월읍 고성북동길 18, 1층",애월읍,5.0,32.0,156.5,4.890625,0.3041215535848105,309468.0,"제주특별자치도 제주시 애월읍 고성북동길 18, 1층",33.4628364,126.4181246,정좌표
55,느영나영해장국,한식,제주특별자치도 제주시 애월읍 항몽로 33,애월읍,4.5,8.0,31.5,3.9375,1.4985111658862318,309536.0,제주특별자치도 제주시 애월읍 항몽로 33,33.4808697,126.4057827,정좌표
56,하귀동태찌개,한식,"제주특별자치도 제주시 애월읍 하귀로 63, 1층",애월읍,5.0,3.0,13.5,4.5,0.5,309556.0,"제주특별자치도 제주시 애월읍 하귀로 63, 1층",33.4809631,126.4038595,정좌표
57,밥먹자,한식,제주특별자치도 제주시 애월읍 평화로 2535-2,애월읍,5.0,10.0,43.5,4.35,0.6687467549246293,309562.0,제주특별자치도 제주시 애월읍 평화로 2535-2,33.435485,126.4220965,정좌표
58,와썹비치하우스,기타,"제주특별자치도 제주시 애월읍 곽지1길 30, 1층",애월읍,5.0,10.0,50.0,5.0,0.0,309682.0,"제주특별자치도 제주시 애월읍 곽지1길 30, 1층",33.4488627,126.3042586,정좌표
59,뜨락,기타,"제주특별자치도 제주시 애월읍 하귀동남2길 1, 1층",애월읍,5.0,8.0,38.5,4.8125,0.37201190457142247,309702.0,"제주특별자치도 제주시 애월읍 하귀동남2길 1, 1층",33.4806472,126.4124765,정좌표
60,하귀비바리,중국식,제주특별자치도 제주시 애월읍 하귀9길 11,애월읍,5.0,10.0,45.0,4.5,0.6666666666666666,309766.0,제주특별자치도 제주시 애월읍 하귀9길 11,33.4830763,126.4136997,정좌표
61,어멍이뽑는막국수,한식,제주특별자치도 제주시 애월읍 하귀동남3길 6,애월읍,5.0,9.0,39.5,4.388888888888889,0.6972166887783964,309786.0,제주특별자치도 제주시 애월읍 하귀동남3길 6,33.4849584,126.4155823,정좌표
62,종이시계,한식,"제주특별자치도 제주시 애월읍 애월해안로 899, 2~3층",애월읍,4.5,10.0,41.5,4.15,1.3550317749451897,309806.0,"제주특별자치도 제주시 애월읍 애월해안로 899, 2~3층",33.4853375,126.3918721,정좌표
63,태희곽지,까페,제주특별자치도 제주시 애월읍 곽지3길 27,애월읍,5.0,10.0,44.5,4.45,0.9559753599799989,309826.0,제주특별자치도 제주시 애월읍 곽지3길 27,33.4493508,126.3044233,정좌표
64,하귀애애,한식,"제주특별자치도 제주시 애월읍 하귀로 43-2, 1층",애월읍,5.0,7.0,34.5,4.928571428571429,0.1889822365046135,309846.0,"제주특별자치도 제주시 애월읍 하귀로 43-2, 1층",33.4805276,126.4021784,정좌표
65,윈드스톤,기타,"제주특별자치도 제주시 애월읍 광성로 272, 1층",애월읍,2.0,10.0,43.0,4.3,1.0327955589886446,309860.0,"제주특별자치도 제주시 애월읍 광성로 272, 1층",33.4603788,126.4361793,정좌표
66,맛의고수,기타,"제주특별자치도 제주시 애월읍 애월로 29, 지하1층",애월읍,5.0,10.0,46.5,4.65,0.5797509043642028,309880.0,"제주특별자치도 제주시 애월읍 애월로 29, 지하1층",33.4623497,126.3103487,정좌표
67,애월집,한식,"제주특별자치도 제주시 애월읍 애월해안로 690, 지하1층",애월읍,4.0,10.0,44.5,4.45,0.83166499665831,310040.0,"제주특별자치도 제주시 애월읍 애월해안로 690, 지하1층",33.482065,126.3756375,정좌표
68,서황,한식,"제주특별자치도 제주시 애월읍 장소로 205-2, 1층",애월읍,4.0,10.0,41.5,4.15,0.9143911149563468,310060.0,"제주특별자치도 제주시 애월읍 장소로 205-2, 1층",33.4348196,126.3800658,정좌표
69,탄트라,경양식,"제주특별자치도 제주시 애월읍 애월해안로 394, 지하2층",애월읍,5.0,7.0,33.0,4.714285714285714,0.7559289460184545,310080.0,"제주특별자치도 제주시 애월읍 애월해안로 394, 지하2층",33.4782235,126.3665625,정좌표
70,에코힐글램핑,한식,"제주특별자치도 제주시 애월읍 광령평화8길 22, 1층",애월읍,5.0,10.0,39.0,3.9,1.7448336437736536,310094.0,"제주특별자치도 제주시 애월읍 광령평화8길 22, 1층",33.4349896,126.4419166,정좌표
71,솔또롱밥집,한식,"제주특별자치도 제주시 애월읍 하귀로 34, 1층",애월읍,5.0,5.0,25.0,5.0,0.0,310114.0,"제주특별자치도 제주시 애월읍 하귀로 34, 1층",33.4800007,126.4008917,정좌표
72,애월한아름식당,한식,"제주특별자치도 제주시 애월읍 애원로 41, 2층",애월읍,5.0,3.0,15.0,5.0,0.0,310124.0,"제주특별자치도 제주시 애월읍 애원로 41, 2층",33.460321,126.3215331,정좌표
73,교촌치킨애월해안도로점,기타,"제주특별자치도 제주시 애월읍 고내로7길 44, 101호",애월읍,5.0,9.0,45.0,5.0,0.0,310130.0,"제주특별자치도 제주시 애월읍 고내로7길 44, 101호",33.4665388,126.3374418,정좌표
74,오후여섯시,까페,"제주특별자치도 제주시 애월읍 곽지9길 10, 1층",애월읍,3.5,9.0,36.5,4.055555555555555,1.445779297741456,310150.0,"제주특별자치도 제주시 애월읍 곽지9길 10, 1층",33.444932,126.326157,정좌표
75,광령치킨,호프/통닭,"제주특별자치도 제주시 애월읍 광성로 284, 1층",애월읍,5.0,7.0,32.5,4.642857142857143,0.47559486560567094,310170.0,"제주특별자치도 제주시 애월읍 광성로 284, 1층",33.4604957,126.4376583,정좌표
76,도레아,한식,"제주특별자치도 제주시 애월읍 하소로 5, 1층 제1호",애월읍,4.0,9.0,43.0,4.777777777777778,0.4409585518440986,310190.0,"제주특별자치도 제주시 애월읍 하소로 5, 1층 제1호",33.4795069,126.3999992,정좌표
77,노형한빛식당,한식,"제주특별자치도 제주시 애월읍 유수암평화5길 88, 1층",애월읍,5.0,6.0,29.5,4.916666666666667,0.20412414523193145,310208.0,"제주특별자치도 제주시 애월읍 유수암평화5길 88, 1층",33.424382,126.4051687,정좌표
78,쿠오모,기타,"제주특별자치도 제주시 애월읍 구엄동1길 7, 1층",애월읍,5.0,10.0,40.5,4.05,0.8316649966583098,310228.0,"제주특별자치도 제주시 애월읍 구엄동1길 7, 1층",33.4756784,126.3778351,정좌표
79,블루사이공,한식,"제주특별자치도 제주시 애월읍 중산간서로 6333, 2층",애월읍,5.0,10.0,46.5,4.65,0.4743416490252569,310248.0,"제주특별자치도 제주시 애월읍 중산간서로 6333, 2층",33.4577429,126.4081487,정좌표
80,쏘렐라,한식,"제주특별자치도 제주시 애월읍 애상로 87, 1층",애월읍,4.5,10.0,48.0,4.8,0.3496029493900505,310268.0,"제주특별자치도 제주시 애월읍 애상로 87, 1층",33.457827,126.332473,정좌표
81,소문난맛집,한식,"제주특별자치도 제주시 애월읍 애월해안로 945-2, 1층",애월읍,5.0,10.0,50.0,5.0,0.0,310288.0,"제주특별자치도 제주시 애월읍 애월해안로 945-2, 1층",33.4836152,126.3965099,정좌표
82,어머니의뜻을담다단지,경양식,"제주특별자치도 제주시 애월읍 하귀2길 66, 1층",애월읍,1.0,10.0,43.0,4.3,1.3374935098492589,310308.0,"제주특별자치도 제주시 애월읍 하귀2길 66, 1층",33.4893386,126.4119402,정좌표
83,마틸다,까페,"제주특별자치도 제주시 애월읍 고내1길 33, 1층",애월읍,5.0,10.0,43.0,4.3,0.8232726023485646,310328.0,"제주특별자치도 제주시 애월읍 고내1길 33, 1층",33.4657599,126.334254,정좌표
84,노라바,분식,"제주특별자치도 제주시 애월읍 구엄길 100, 1층",애월읍,5.0,10.0,42.0,4.2,0.8563488385776752,310348.0,"제주특별자치도 제주시 애월읍 구엄길 100, 1층",33.4828309,126.3764312,정좌표
85,후카후카,한식,"제주특별자치도 제주시 애월읍 항파두리로 148, 1층",애월읍,4.5,10.0,48.0,4.8,0.3496029493900505,310368.0,"제주특별자치도 제주시 애월읍 항파두리로 148, 1층",33.4520718,126.4077366,정좌표
86,요시노,일식,"제주특별자치도 제주시 애월읍 고성남서길 7, 1층",애월읍,5.0,10.0,40.0,4.0,1.8708286933869707,310388.0,"제주특별자치도 제주시 애월읍 고성남서길 7, 1층",33.4285926,126.4220938,정좌표
87,따뜻한밥상,한식,"제주특별자치도 제주시 애월읍 곽지1길 3-2, 1층",애월읍,5.0,9.0,41.0,4.555555555555555,1.3333333333333333,310408.0,"제주특별자치도 제주시 애월읍 곽지1길 3-2, 1층",33.446402,126.305155,정좌표
88,칠사돈한담점,한식,"제주특별자치도 제주시 애월읍 애월로 37, 1층",애월읍,5.0,106.0,451.0,4.254716981132075,1.3925743256540388,310428.0,"제주특별자치도 제주시 애월읍 애월로 37, 1층",33.4621883,126.3123305,정좌표
89,마농애월점,한식,"제주특별자치도 제주시 애월읍 애월해안로 881, 1층",애월읍,5.0,2.0,10.0,5.0,0.0,310654.0,"제주특별자치도 제주시 애월읍 애월해안로 881, 1층",33.4782235,126.3665625,정좌표
90,애월국수,한식,"제주특별자치도 제주시 애월읍 애월로 106-1, 1층 제1호",애월읍,5.0,18.0,80.5,4.472222222222222,0.8483933296708933,310658.0,"제주특별자치도 제주시 애월읍 애월로 106-1, 1층 제1호",33.4644349,126.318555,정좌표
91,바삭애월해안도로점,기타,"제주특별자치도 제주시 애월읍 애월해안로 724, 1층",애월읍,5.0,121.0,524.5,4.3347107438016526,1.0152758856423911,310694.0,"제주특별자치도 제주시 애월읍 애월해안로 724, 1층",33.4840035,126.3782131,정좌표
92,숯불덮밥화리,전통찻집,제주특별자치도 제주시 애월읍 유수암평화5길 30,애월읍,5.0,55.0,262.0,4.763636363636364,0.4892789995431436,310946.0,제주특별자치도 제주시 애월읍 유수암평화5길 30,33.4242534,126.4058831,정좌표
93,탐라해동밥상,한식,"제주특별자치도 제주시 애월읍 광상로 323-16, 1층",애월읍,5.0,24.0,113.0,4.708333333333333,0.7506036218280924,311064.0,"제주특별자치도 제주시 애월읍 광상로 323-16, 1층",33.4425732,126.3989656,정좌표
94,굽네치킨애월점,통닭(치킨),"제주특별자치도 제주시 애월읍 고내로11길 30, 2층",애월읍,5.0,10.0,43.0,4.3,0.8232726023485646,311112.0,"제주특별자치도 제주시 애월읍 고내로11길 30, 2층",33.4631085,126.3388615,정좌표
95,제주갈매기,한식,"제주특별자치도 제주시 애월읍 하광로 17, 1층",애월읍,5.0,10.0,47.5,4.75,0.4249182927993988,311132.0,"제주특별자치도 제주시 애월읍 하광로 17, 1층",33.4621944,126.4227085,정좌표
96,자담치킨하귀점,한식,"제주특별자치도 제주시 애월읍 하귀9길 45, 102호",애월읍,5.0,8.0,36.0,4.5,0.654653670707977,311152.0,"제주특별자치도 제주시 애월읍 하귀9길 45, 102호",33.4827335,126.4164924,정좌표
97,잇수다,경양식,"제주특별자치도 제주시 애월읍 고내로7길 46-1, 1층",애월읍,5.0,10.0,50.0,5.0,0.0,311172.0,"제주특별자치도 제주시 애월읍 고내로7길 46-1, 1층",33.466902,126.3376403,정좌표
98,홀가분가든,한식,"제주특별자치도 제주시 애월읍 광령중길 133-2, 1층",애월읍,5.0,8.0,36.5,4.5625,0.4955156044825574,311192.0,"제주특별자치도 제주시 애월읍 광령중길 133-2, 1층",33.4538948,126.4351433,정좌표
99,산들촌,한식,"제주특별자치도 제주시 애월읍 평화로 2751, 1층",애월읍,4.5,2.0,8.5,4.25,0.3535533905932738,311212.0,"제주특별자치도 제주시 애월읍 평화로 2751, 1층",33.4222395,126.4092532,정좌표
100,화돗,기타,"제주특별자치도 제주시 애월읍 하광로 15, 1층",애월읍,5.0,9.0,40.0,4.444444444444445,1.4883809249576458,311216.0,"제주특별자치도 제주시 애월읍 하광로 15, 1층",33.4621944,126.4227085,정좌표
101,칠사돈,한식,"제주특별자치도 제주시 애월읍 애월해안로 906, 1층",애월읍,5.0,10.0,50.0,5.0,0.0,311236.0,"제주특별자치도 제주시 애월읍 애월해안로 906, 1층",33.4847302,126.3921125,정좌표
102,임순이네,한식,"제주특별자치도 제주시 애월읍 곽지1길 26-7, 1층 제3호",애월읍,5.0,10.0,47.5,4.75,0.42491829279939886,311256.0,"제주특별자치도 제주시 애월읍 곽지1길 26-7, 1층 제3호",33.4488627,126.3042586,정좌표
103,신제주촌오리,한식,제주특별자치도 제주시 애월읍 가문동길 27-6,애월읍,5.0,10.0,48.0,4.8,0.421637021355784,311276.0,제주특별자치도 제주시 애월읍 가문동길 27-6,33.4848359,126.3930326,정좌표
104,가호,한식,"제주특별자치도 제주시 애월읍 가문동상2길 35, 가동 1층",애월읍,5.0,8.0,38.5,4.8125,0.37201190457142236,311296.0,"제주특별자치도 제주시 애월읍 가문동상2길 35, 가동 1층",33.4853633,126.3906957,정좌표
105,모립,기타,"제주특별자치도 제주시 애월읍 애월로1길 26-7, 1층",애월읍,5.0,10.0,44.0,4.4,1.4102797200870787,311316.0,"제주특별자치도 제주시 애월읍 애월로1길 26-7, 1층",33.4629939,126.3097778,정좌표
106,디오라제,기타,"제주특별자치도 제주시 애월읍 애월해안로 554-8, 오렌지힐 1층",애월읍,4.5,8.0,34.5,4.3125,1.3611313571542503,311336.0,"제주특별자치도 제주시 애월읍 애월해안로 554-8, 오렌지힐 1층",33.4775969,126.3629091,정좌표
107,하늘김밥창고,분식,"제주특별자치도 제주시 애월읍 일주서로 6705, 1층",애월읍,4.5,10.0,38.0,3.8,1.3984117975602022,311352.0,"제주특별자치도 제주시 애월읍 일주서로 6705, 1층",33.4720067,126.3684499,정좌표
108,애월플라워하물,기타,"제주특별자치도 제주시 애월읍 애월해안로 58, 1~2층",애월읍,5.0,6.0,27.5,4.583333333333333,0.8010409893798613,311372.0,"제주특별자치도 제주시 애월읍 애월해안로 58, 1~2층",33.4782235,126.3665625,정좌표
109,애월프렌즈,경양식,"제주특별자치도 제주시 애월읍 신엄안2길 34, 1층",애월읍,3.5,6.0,24.5,4.083333333333333,0.4915960401250874,311384.0,"제주특별자치도 제주시 애월읍 신엄안2길 34, 1층",33.4755071,126.3685627,정좌표
110,로뎀애가든,한식,"제주특별자치도 제주시 애월읍 애월항로 17, 2층",애월읍,5.0,10.0,49.5,4.95,0.158113883008419,311396.0,"제주특별자치도 제주시 애월읍 애월항로 17, 2층",33.4638695,126.3265501,정좌표
111,에이엠11,한식,"제주특별자치도 제주시 애월읍 애월해안로 720, 1~2층",애월읍,4.0,10.0,39.5,3.95,0.6433419688539594,311416.0,"제주특별자치도 제주시 애월읍 애월해안로 720, 1~2층",33.4839595,126.377939,정좌표
112,제주반딧불한담애월점,한식,"제주특별자치도 제주시 애월읍 애월로1길 24-11, 1층",애월읍,3.0,10.0,46.5,4.65,0.6687467549246293,311436.0,"제주특별자치도 제주시 애월읍 애월로1길 24-11, 1층",33.4624642,126.3102678,정좌표
113,만지식당,한식,"제주특별자치도 제주시 애월읍 고내로 13-1, 1층",애월읍,4.5,10.0,35.5,3.55,1.8476712069220782,311456.0,"제주특별자치도 제주시 애월읍 고내로 13-1, 1층",33.4632506,126.3389717,정좌표
114,죽성오리,한식,제주특별자치도 제주시 애월읍 하귀11길 3-11,애월읍,5.0,3.0,14.0,4.666666666666667,0.5773502691896258,311476.0,제주특별자치도 제주시 애월읍 하귀11길 3-11,33.4830763,126.4136997,정좌표
115,문개항아리애월점,한식,제주특별자치도 제주시 애월읍 가문동길 38,애월읍,4.5,10.0,48.5,4.85,0.24152294576982405,311482.0,제주특별자치도 제주시 애월읍 가문동길 38,33.4857824,126.3925353,정좌표
116,유수암별장미락,한식,"제주특별자치도 제주시 애월읍 유수암평화길 170, 1층",애월읍,4.0,2.0,8.0,4.0,0.0,311502.0,"제주특별자치도 제주시 애월읍 유수암평화길 170, 1층",33.4288308,126.4087735,정좌표
117,몬스터살롱,패스트푸드,"제주특별자치도 제주시 애월읍 일주서로 6017, 1층",애월읍,5.0,10.0,43.0,4.3,1.0327955589886442,311506.0,"제주특별자치도 제주시 애월읍 일주서로 6017, 1층",33.4482531,126.3072817,정좌표
118,연화키친,한식,"제주특별자치도 제주시 애월읍 상가로 51, 1층",애월읍,4.0,9.0,40.5,4.5,0.7905694150420949,311526.0,"제주특별자치도 제주시 애월읍 상가로 51, 1층",33.4490813,126.3462983,정좌표
119,심바카레,한식,"제주특별자치도 제주시 애월읍 금성5길 44-16, 1층",애월읍,4.5,194.0,891.5,4.595360824742268,0.6043273344488155,311686.0,"제주특별자치도 제주시 애월읍 금성5길 44-16, 1층",33.4482312,126.302319,정좌표
120,중엄집밥처럼,한식,"제주특별자치도 제주시 애월읍 일주서로 6755, 나동 1층",애월읍,4.5,12.0,51.0,4.25,1.118033988749895,312102.0,"제주특별자치도 제주시 애월읍 일주서로 6755, 나동 1층",33.4737148,126.3735697,정좌표
121,꿈낭,한식,"제주특별자치도 제주시 애월읍 유수암평화5길 32, A동 1층",애월읍,5.0,9.0,38.5,4.277777777777778,0.97182531580755,312132.0,"제주특별자치도 제주시 애월읍 유수암평화5길 32, A동 1층",33.424382,126.4051687,정좌표
122,베트남쌀국수,"외국음식전문점(인도,태국등)","제주특별자치도 제주시 애월읍 광령중길 133-2, 1층",애월읍,4.5,23.0,108.5,4.717391304347826,0.4478759709735432,312150.0,"제주특별자치도 제주시 애월읍 광령중길 133-2, 1층",33.4538948,126.4351433,정좌표
123,한수위,한식,"제주특별자치도 제주시 애월읍 하광로 540-66, 1층",애월읍,5.0,52.0,243.0,4.673076923076923,0.8277338268335207,312222.0,"제주특별자치도 제주시 애월읍 하광로 540-66, 1층",33.4411527,126.4288763,정좌표
124,씨사이드애월하귀점,기타,"제주특별자치도 제주시 애월읍 하귀14길 5-3, 1층",애월읍,4.5,88.0,421.0,4.784090909090909,0.44718438780665687,312334.0,"제주특별자치도 제주시 애월읍 하귀14길 5-3, 1층",33.4850161,126.4077531,정좌표
125,볼륨1603,기타,"제주특별자치도 제주시 애월읍 일주서로 7087-14, 1층",애월읍,4.5,25.0,118.0,4.72,0.4804511768466525,312528.0,"제주특별자치도 제주시 애월읍 일주서로 7087-14, 1층",33.4842288,126.4064775,정좌표
126,장전고을,한식,"제주특별자치도 제주시 애월읍 중산간서로 6010, 1층",애월읍,0.5,5.0,20.5,4.1,2.0124611797498106,312588.0,"제주특별자치도 제주시 애월읍 중산간서로 6010, 1층",33.4470046,126.3747347,정좌표
127,소랑국수,한식,"제주특별자치도 제주시 애월읍 애월로1길 24-5, 1층",애월읍,4.0,70.0,239.0,3.414285714285714,1.691777704440579,312598.0,"제주특별자치도 제주시 애월읍 애월로1길 24-5, 1층",33.4624642,126.3102678,정좌표
128,곽지곤지암해장국,한식,"제주특별자치도 제주시 애월읍 곽지1길 4, 1층",애월읍,5.0,37.0,157.5,4.256756756756757,0.902324325943388,312740.0,"제주특별자치도 제주시 애월읍 곽지1길 4, 1층",33.4466795,126.3052733,정좌표
129,로맨틱새우,기타,"제주특별자치도 제주시 애월읍 곽지1길 12-12, 1층 103호 (곽지어촌계펜션)",애월읍,5.0,1176.0,5658.0,4.811224489795919,0.5485701621059343,312820.0,"제주특별자치도 제주시 애월읍 곽지1길 12-12, 1층 103호 (곽지어촌계펜션)",33.4480612,126.3055099,정좌표
130,코코리파이프,기타,"제주특별자치도 제주시 애월읍 하귀6길 22, 1층",애월읍,4.5,145.0,669.5,4.617241379310345,0.6693015459320059,315212.0,"제주특별자치도 제주시 애월읍 하귀6길 22, 1층",33.4887078,126.4145642,정좌표
131,어촌계회센타,한식,제주특별자치도 제주시 애월읍 애월포구동길 3,애월읍,5.0,12.0,53.5,4.458333333333333,0.810676858986964,315508.0,제주특별자치도 제주시 애월읍 애월포구동길 3,33.4658162,126.3218897,정좌표
132,마시레치킨,한식,제주특별자치도 제주시 애월읍 하귀로 61,애월읍,5.0,35.0,162.5,4.642857142857143,0.5225985492684407,315532.0,제주특별자치도 제주시 애월읍 하귀로 61,33.4808195,126.4036298,정좌표
133,바다속고등어쌈밥,기타,제주특별자치도 제주시 애월읍 일주서로 7089,애월읍,4.0,478.0,2160.0,4.518828451882845,0.8799306051505523,316124.0,제주특별자치도 제주시 애월읍 일주서로 7089,33.4842697,126.4068534,정좌표
134,곤밥보리밥,한식,"제주특별자치도 제주시 애월읍 애원로 70-2, 1층",애월읍,5.0,26.0,117.0,4.5,0.6928203230275507,317184.0,"제주특별자치도 제주시 애월읍 애원로 70-2, 1층",33.4431304,126.3385993,정좌표
135,곽지해녀의집,한식,제주특별자치도 제주시 애월읍 곽지11길 27,애월읍,5.0,111.0,443.0,3.990990990990991,1.2791722856135277,317600.0,제주특별자치도 제주시 애월읍 곽지11길 27,33.4538292,126.3066334,정좌표
136,청아돈,한식,제주특별자치도 제주시 애월읍 애월로11길 14,애월읍,5.0,12.0,51.5,4.291666666666667,1.3048568945104728,317832.0,제주특별자치도 제주시 애월읍 애월로11길 14,33.4636964,126.3180099,정좌표
137,초원도야지,기타,"제주특별자치도 제주시 애월읍 하소로 14, 1층",애월읍,4.5,12.0,51.0,4.25,1.3399457248166977,317856.0,"제주특별자치도 제주시 애월읍 하소로 14, 1층",33.4787068,126.3994104,정좌표
138,떡빙,한식,"제주특별자치도 제주시 애월읍 하귀동남3길 15-15, 1층",애월읍,4.0,1.0,4.0,4.0,,317880.0,"제주특별자치도 제주시 애월읍 하귀동남3길 15-15, 1층",33.4849584,126.4155823,정좌표
139,제주김만복애월점,기타,"제주특별자치도 제주시 애월읍 애월해안로 255, 2층",애월읍,4.5,1001.0,4062.5,4.058441558441558,1.2003462703866608,317882.0,"제주특별자치도 제주시 애월읍 애월해안로 255, 2층",33.4782235,126.3665625,정좌표
140,야미부대찌게하귀점,한식,"제주특별자치도 제주시 애월읍 하귀동남3길 7, 1층",애월읍,4.0,16.0,70.5,4.40625,0.7122441060947199,319930.0,"제주특별자치도 제주시 애월읍 하귀동남3길 7, 1층",33.4835358,126.4131748,정좌표
141,하귀청마루,한식,제주특별자치도 제주시 애월읍 항몽로 71-1,애월읍,4.5,35.0,153.5,4.385714285714286,0.7773041108036605,319964.0,제주특별자치도 제주시 애월읍 항몽로 71-1,33.4775698,126.4089878,정좌표
142,애월튀김간,분식,제주특별자치도 제주시 애월읍 애월로 118,애월읍,0.5,31.0,118.5,3.8225806451612905,1.2148277456548737,320058.0,제주특별자치도 제주시 애월읍 애월로 118,33.4643446,126.3198712,정좌표
143,잇칸시타,일식,"제주특별자치도 제주시 애월읍 신엄안2길 54-1, 1동 1층",애월읍,5.0,328.0,1490.0,4.5426829268292686,0.8144385864408453,320120.0,"제주특별자치도 제주시 애월읍 신엄안2길 54-1, 1동 1층",33.4770905,126.3699554,정좌표
144,애월성,중국식,제주특별자치도 제주시 애월읍 애월로7길 2,애월읍,5.0,31.0,113.0,3.6451612903225805,1.5231193233355946,320818.0,제주특별자치도 제주시 애월읍 애월로7길 2,33.4647427,126.3197753,정좌표
145,홍스랜드,기타,제주특별자치도 제주시 애월읍 어음13길 25-45,애월읍,5.0,27.0,129.0,4.777777777777778,0.4668497809239262,320880.0,제주특별자치도 제주시 애월읍 어음13길 25-45,33.3981204,126.352168,정좌표
146,달빛제주,기타,"제주특별자치도 제주시 애월읍 애월해안로 929, 가동 2층",애월읍,5.0,67.0,307.5,4.58955223880597,0.6737804534879945,321312.0,"제주특별자치도 제주시 애월읍 애월해안로 929, 가동 2층",33.4782235,126.3665625,정좌표
147,비비큐하귀애월점,통닭(치킨),"제주특별자치도 제주시 애월읍 애월해안로 991, 1층",애월읍,5.0,26.0,113.5,4.365384615384615,1.0635571663779273,321462.0,"제주특별자치도 제주시 애월읍 애월해안로 991, 1층",33.4782235,126.3665625,정좌표
148,송이,한식,제주특별자치도 제주시 애월읍 곽지8길 12-1,애월읍,4.5,5.0,23.5,4.7,0.2738612787525831,321524.0,제주특별자치도 제주시 애월읍 곽지8길 12-1,33.4487082,126.3086558,정좌표
149,청수냉면,한식,제주특별자치도 제주시 애월읍 하귀9길 12,애월읍,5.0,23.0,104.5,4.543478260869565,0.638055345958271,321564.0,제주특별자치도 제주시 애월읍 하귀9길 12,33.4871453,126.4093484,정좌표
150,모리노아루요,한식,"제주특별자치도 제주시 애월읍 하소로 769-58, 아동 1층",애월읍,3.0,67.0,254.5,3.798507462686567,1.4487709040836034,321616.0,"제주특별자치도 제주시 애월읍 하소로 769-58, 아동 1층",33.418384,126.4001215,정좌표
151,호커센터,한식,제주특별자치도 제주시 애월읍 애월로11길 25-2,애월읍,5.0,559.0,2750.5,4.920393559928444,0.2750285531504988,321752.0,제주특별자치도 제주시 애월읍 애월로11길 25-2,33.4669387,126.3203654,정좌표
152,해삼궁,한식,"제주특별자치도 제주시 애월읍 평화로 1976, 1층",애월읍,5.0,36.0,158.5,4.402777777777778,1.0338516365268309,322958.0,"제주특별자치도 제주시 애월읍 평화로 1976, 1층",33.400203,126.3798207,정좌표
153,팩토리스토리,기타,"제주특별자치도 제주시 애월읍 일주서로 6083, 1층",애월읍,5.0,28.0,110.5,3.9464285714285716,1.2934255817207787,323034.0,"제주특별자치도 제주시 애월읍 일주서로 6083, 1층",33.4547078,126.3083167,정좌표
154,성안식당,회집,제주특별자치도 제주시 애월읍 애월로11길 5,애월읍,4.0,26.0,107.5,4.134615384615385,1.3233116965227225,323498.0,제주특별자치도 제주시 애월읍 애월로11길 5,33.4647956,126.3201572,정좌표
155,애월등대집,한식,"제주특별자치도 제주시 애월읍 애월해안로 56, 1층",애월읍,5.0,18.0,89.0,4.944444444444445,0.16169041669088866,323914.0,"제주특별자치도 제주시 애월읍 애월해안로 56, 1층",33.4670965,126.3203656,정좌표
156,소길역,일식,"제주특별자치도 제주시 애월읍 소길2길 53, 1층",애월읍,5.0,110.0,525.0,4.7727272727272725,0.721988727822385,323956.0,"제주특별자치도 제주시 애월읍 소길2길 53, 1층",33.4419011,126.370287,정좌표
157,피자그리기앤파닭,한식,"제주특별자치도 제주시 애월읍 일주서로 6214, 1층",애월읍,5.0,6.0,29.0,4.833333333333333,0.408248290463863,324190.0,"제주특별자치도 제주시 애월읍 일주서로 6214, 1층",33.4603612,126.3181141,정좌표
158,브로치킨,통닭(치킨),제주특별자치도 제주시 애월읍 고내로13길 79,애월읍,5.0,18.0,83.0,4.611111111111111,0.6076849889141855,324286.0,제주특별자치도 제주시 애월읍 고내로13길 79,33.4711863,126.3472928,정좌표
159,리틀줄리,기타,"제주특별자치도 제주시 애월읍 곽지1길 9, 1층",애월읍,5.0,8.0,37.0,4.625,0.744023809142845,324322.0,"제주특별자치도 제주시 애월읍 곽지1길 9, 1층",33.4469439,126.3046315,정좌표
160,광평도새기촌본점,식육(숯불구이),"제주특별자치도 제주시 애월읍 구엄동3길 64, 1층",애월읍,5.0,620.0,2941.5,4.744354838709677,0.7554115397603111,324340.0,"제주특별자치도 제주시 애월읍 구엄동3길 64, 1층",33.4792685,126.3810461,정좌표
161,탐라면,분식,"제주특별자치도 제주시 애월읍 애월로 37, 1층",애월읍,5.0,68.0,288.0,4.235294117647059,1.4646852553631835,325604.0,"제주특별자치도 제주시 애월읍 애월로 37, 1층",33.4621883,126.3123305,정좌표
162,애월할망네,한식,"제주특별자치도 제주시 애월읍 중산간서로 5632, 1층",애월읍,4.5,27.0,111.5,4.12962962962963,1.173362956114018,327284.0,"제주특별자치도 제주시 애월읍 중산간서로 5632, 1층",33.4470046,126.3747347,정좌표
163,카페어떤오후,기타,"제주특별자치도 제주시 애월읍 상가북6길 13, 1층",애월읍,4.0,31.0,142.5,4.596774193548387,0.5689076497802563,327348.0,"제주특별자치도 제주시 애월읍 상가북6길 13, 1층",33.4511382,126.3458599,정좌표
164,고래밥,한식,"제주특별자치도 제주시 애월읍 애월로 93-1, 1층",애월읍,4.0,14.0,65.5,4.678571428571429,0.575364194266515,327420.0,"제주특별자치도 제주시 애월읍 애월로 93-1, 1층",33.4649048,126.3174412,정좌표
165,삼일해장국,한식,제주특별자치도 제주시 애월읍 하귀9길 14,애월읍,2.0,88.0,378.0,4.295454545454546,1.0576387809708871,327448.0,제주특별자치도 제주시 애월읍 하귀9길 14,33.4826863,126.415916,정좌표
166,블라썸1407,기타,"제주특별자치도 제주시 애월읍 고하상로 103, 1층",애월읍,5.0,44.0,197.5,4.488636363636363,0.7812381077318976,327632.0,"제주특별자치도 제주시 애월읍 고하상로 103, 1층",33.4569306,126.3475934,정좌표
167,애월회센터,횟집,"제주특별자치도 제주시 애월읍 신엄9길 72-11, 1층",애월읍,4.0,61.0,255.5,4.188524590163935,1.4438488333450674,327724.0,"제주특별자치도 제주시 애월읍 신엄9길 72-11, 1층",33.4773551,126.3683507,정좌표
168,17번가,호프/통닭,"제주특별자치도 제주시 애월읍 항몽로 17, 1층",애월읍,4.0,2.0,9.0,4.5,0.7071067811865476,327850.0,"제주특별자치도 제주시 애월읍 항몽로 17, 1층",33.4598766,126.412214,정좌표
169,퐁낭집,한식,"제주특별자치도 제주시 애월읍 유수암로 36, 1층",애월읍,5.0,6.0,28.5,4.75,0.4183300132670378,327854.0,"제주특별자치도 제주시 애월읍 유수암로 36, 1층",33.4395837,126.4026069,정좌표
170,제주애월회관,식육(숯불구이),제주특별자치도 제주시 애월읍 애월로 38,애월읍,4.0,182.0,799.5,4.392857142857143,1.1252027792341301,327866.0,제주특별자치도 제주시 애월읍 애월로 38,33.4655339,126.3203113,정좌표
171,낮갈치밤돼지,한식,"제주특별자치도 제주시 애월읍 신엄7길 9, 1층",애월읍,5.0,88.0,432.5,4.9147727272727275,0.37310125362231844,328248.0,"제주특별자치도 제주시 애월읍 신엄7길 9, 1층",33.472592,126.3664905,정좌표
172,스시애월,일식,"제주특별자치도 제주시 애월읍 애월로9길 50-3, 1층",애월읍,5.0,140.0,634.0,4.5285714285714285,0.8707299273437459,328426.0,"제주특별자치도 제주시 애월읍 애월로9길 50-3, 1층",33.4665125,126.3193173,정좌표
173,명리동식당애월점,한식,제주특별자치도 제주시 애월읍 애월해안로 384-8,애월읍,4.5,119.0,502.5,4.222689075630252,0.9515764773980461,328714.0,제주특별자치도 제주시 애월읍 애월해안로 384-8,33.4728044,126.3494447,정좌표
174,투썸플레이스곽지과물해변점,기타,"제주특별자치도 제주시 애월읍 곽지3길 26, A동 1층",애월읍,3.5,180.0,770.0,4.277777777777778,0.8687984096431038,328958.0,"제주특별자치도 제주시 애월읍 곽지3길 26, A동 1층",33.4486337,126.3059886,정좌표
175,에피소드,한식,"제주특별자치도 제주시 애월읍 하귀동남1길 19, 1층",애월읍,5.0,2.0,10.0,5.0,0.0,329344.0,"제주특별자치도 제주시 애월읍 하귀동남1길 19, 1층",33.48518,126.4146088,정좌표
176,시루애월,기타,제주특별자치도 제주시 애월읍 하소로 449,애월읍,5.0,129.0,543.5,4.213178294573644,1.2987000618985096,329594.0,제주특별자치도 제주시 애월읍 하소로 449,33.4426654,126.3918782,정좌표
177,고스트타운,뷔페식,제주특별자치도 제주시 애월읍 부룡수길 35-14,애월읍,3.5,145.0,560.0,3.8620689655172415,1.212611333119862,329906.0,제주특별자치도 제주시 애월읍 부룡수길 35-14,33.4760526,126.3568775,정좌표
178,호식이두마리치킨애월읍내점,호프/통닭,"제주특별자치도 제주시 애월읍 애월로11길 11, 1층",애월읍,2.5,19.0,72.5,3.8157894736842106,1.2495613265350083,330218.0,"제주특별자치도 제주시 애월읍 애월로11길 11, 1층",33.4654439,126.3203652,정좌표
179,디딤팡,한식,"제주특별자치도 제주시 애월읍 장전로 63, 다동 1층",애월읍,5.0,1.0,5.0,5.0,,330262.0,"제주특별자치도 제주시 애월읍 장전로 63, 다동 1층",33.4619478,126.3295244,정좌표
180,애월바당국수,한식,"제주특별자치도 제주시 애월읍 애월해안로 34, 1층",애월읍,3.0,66.0,282.0,4.2727272727272725,0.9330752223852967,330264.0,"제주특별자치도 제주시 애월읍 애월해안로 34, 1층",33.4782235,126.3665625,정좌표
181,그마니네,한식,제주특별자치도 제주시 애월읍 일주서로 7219,애월읍,5.0,112.0,516.0,4.607142857142857,0.8761827821272619,330408.0,제주특별자치도 제주시 애월읍 일주서로 7219,33.4893844,126.4193291,정좌표
182,대호해물가든,한식,"제주특별자치도 제주시 애월읍 항몽로 134, 1~2층",애월읍,3.5,19.0,69.0,3.6315789473684212,1.3316875808032065,330640.0,"제주특별자치도 제주시 애월읍 항몽로 134, 1~2층",33.4725115,126.4090103,정좌표
183,와썹,호프/통닭,"제주특별자치도 제주시 애월읍 곽지1길 30, 1층 제1호",애월읍,5.0,68.0,335.5,4.9338235294117645,0.48794735895355085,330688.0,"제주특별자치도 제주시 애월읍 곽지1길 30, 1층 제1호",33.4488627,126.3042586,정좌표
184,고집78,기타,"제주특별자치도 제주시 애월읍 부룡수길 50, 1층",애월읍,4.5,12.0,57.0,4.75,0.3370999312316211,330832.0,"제주특별자치도 제주시 애월읍 부룡수길 50, 1층",33.4746076,126.3577962,정좌표
185,봉성식당,한식,"제주특별자치도 제주시 애월읍 봉성로 66, 1층",애월읍,5.0,180.0,821.0,4.561111111111111,0.7373809070693996,330860.0,"제주특별자치도 제주시 애월읍 봉성로 66, 1층",33.4186696,126.3126809,정좌표
186,트라이브,한식,"제주특별자치도 제주시 애월읍 애월로 11, 제2동 1층",애월읍,3.5,198.0,933.0,4.712121212121212,0.592212187119737,331242.0,"제주특별자치도 제주시 애월읍 애월로 11, 제2동 1층",33.4600513,126.3113009,정좌표
187,하귀밀면,한식,"제주특별자치도 제주시 애월읍 하광로 15, 1층",애월읍,3.5,21.0,92.0,4.380952380952381,1.2031704150364766,331662.0,"제주특별자치도 제주시 애월읍 하광로 15, 1층",33.4621944,126.4227085,정좌표
188,머구리,한식,"제주특별자치도 제주시 애월읍 가문동길 63, 1층",애월읍,5.0,16.0,65.0,4.0625,1.181453906563152,331706.0,"제주특별자치도 제주시 애월읍 가문동길 63, 1층",33.4875675,126.3912843,정좌표
189,큰맘할매순대국제주곽지점,한식,"제주특별자치도 제주시 애월읍 곽지1길 3, 1층 2호",애월읍,4.0,26.0,104.0,4.0,0.9797958971132712,331738.0,"제주특별자치도 제주시 애월읍 곽지1길 3, 1층 2호",33.4462688,126.3048414,정좌표
190,다다의작은공간,한식,제주특별자치도 제주시 애월읍 광상로 528-1,애월읍,5.0,24.0,111.5,4.645833333333333,0.5610387622558918,331794.0,제주특별자치도 제주시 애월읍 광상로 528-1,33.4414143,126.3779121,정좌표
191,맛있는밥집,한식,"제주특별자치도 제주시 애월읍 하광로 392, 1층 1호",애월읍,3.5,3.0,10.0,3.3333333333333335,1.755942292142123,331846.0,"제주특별자치도 제주시 애월읍 하광로 392, 1층 1호",33.4621944,126.4227085,정좌표
192,회가서쪽에서뜨겠네,한식,"제주특별자치도 제주시 애월읍 애월로 12, 1층",애월읍,4.5,323.0,1541.0,4.7708978328173375,0.6547638131571825,331858.0,"제주특별자치도 제주시 애월읍 애월로 12, 1층",33.4654486,126.3206426,정좌표
193,목수포차,기타,"제주특별자치도 제주시 애월읍 고내북동길 51-22, 1층",애월읍,5.0,25.0,120.0,4.8,0.4787135538781689,332532.0,"제주특별자치도 제주시 애월읍 고내북동길 51-22, 1층",33.4690303,126.3419283,정좌표
194,허황후김치찜,한식,"제주특별자치도 제주시 애월읍 해암이길 186, 1층",애월읍,4.0,1.0,4.0,4.0,,332604.0,"제주특별자치도 제주시 애월읍 해암이길 186, 1층",33.4202883,126.3328561,정좌표
195,하귀당구카페,기타,"제주특별자치도 제주시 애월읍 하귀9길 23, 3층",애월읍,4.0,1.0,4.0,4.0,,332608.0,"제주특별자치도 제주시 애월읍 하귀9길 23, 3층",33.4826863,126.415916,정좌표
196,애월해송수산물회센타,횟집,"제주특별자치도 제주시 애월읍 애월로11길 23, 1층",애월읍,4.5,240.0,990.0,4.125,1.494410786339004,332648.0,"제주특별자치도 제주시 애월읍 애월로11길 23, 1층",33.4663286,126.3205148,정좌표
197,애월하와이,기타,"제주특별자치도 제주시 애월읍 신엄안3길 99, 1층",애월읍,5.0,4.0,18.0,4.5,0.7071067811865476,333196.0,"제주특별자치도 제주시 애월읍 신엄안3길 99, 1층",33.4736903,126.3608227,정좌표
198,하미,기타,"제주특별자치도 제주시 애월읍 애월북서길 54, 1층",애월읍,5.0,565.0,2239.0,3.9628318584070796,1.4903468758415799,333212.0,"제주특별자치도 제주시 애월읍 애월북서길 54, 1층",33.4662251,126.3107458,정좌표
199,무수천골프,기타,"제주특별자치도 제주시 애월읍 평화로 2847, 1층",애월읍,5.0,2.0,10.0,5.0,0.0,334444.0,"제주특별자치도 제주시 애월읍 평화로 2847, 1층",33.4572212,126.4423119,정좌표
200,어음밥집,기타,"제주특별자치도 제주시 애월읍 어림비로 393-1, 1층",애월읍,3.0,6.0,28.0,4.666666666666667,0.8164965809277261,334464.0,"제주특별자치도 제주시 애월읍 어림비로 393-1, 1층",33.4020841,126.3392178,정좌표
201,모아나디쉬,기타,"제주특별자치도 제주시 애월읍 일주서로 7087-12, 1층",애월읍,5.0,587.0,2728.5,4.648211243611584,0.7361991005900121,334488.0,"제주특별자치도 제주시 애월읍 일주서로 7087-12, 1층",33.4847224,126.4063706,정좌표
202,애월후식,기타,"제주특별자치도 제주시 애월읍 납읍로 21, 1층",애월읍,5.0,72.0,341.5,4.743055555555555,0.6445494963213747,335954.0,"제주특별자치도 제주시 애월읍 납읍로 21, 1층",33.4389732,126.3302631,정좌표
203,스시아리엔,기타,"제주특별자치도 제주시 애월읍 하귀동남3길 4, 1층",애월읍,5.0,18.0,84.5,4.694444444444445,0.9570003517254393,336122.0,"제주특별자치도 제주시 애월읍 하귀동남3길 4, 1층",33.4849584,126.4155823,정좌표
204,제주이와이,기타,"제주특별자치도 제주시 애월읍 하귀로 4, 1층",애월읍,5.0,23.0,112.0,4.869565217391305,0.3759047057780561,336184.0,"제주특별자치도 제주시 애월읍 하귀로 4, 1층",33.4805276,126.4021784,정좌표
205,우굼,기타,"제주특별자치도 제주시 애월읍 하소로 611-42, 1층",애월읍,0.5,102.0,443.5,4.348039215686274,1.2443719153827921,336252.0,"제주특별자치도 제주시 애월읍 하소로 611-42, 1층",33.4294575,126.3992538,정좌표
206,황제중화요리,기타,"제주특별자치도 제주시 애월읍 광령5길 6, 1층",애월읍,2.5,10.0,39.0,3.9,1.3498971154211057,336478.0,"제주특별자치도 제주시 애월읍 광령5길 6, 1층",33.460949,126.4358571,정좌표
207,레이니데이,기타,"제주특별자치도 제주시 애월읍 중산간서로 5384, 1층",애월읍,5.0,4.0,20.0,5.0,0.0,336518.0,"제주특별자치도 제주시 애월읍 중산간서로 5384, 1층",33.4308629,126.3202436,정좌표
208,곽지뽕끌락,한식,"제주특별자치도 제주시 애월읍 일주서로 6001, 1층",애월읍,5.0,5.0,22.0,4.4,1.08397416943394,336534.0,"제주특별자치도 제주시 애월읍 일주서로 6001, 1층",33.466277,126.3511114,정좌표
209,멕시카나광령점,호프/통닭,"제주특별자치도 제주시 애월읍 중산간서로 6703, 1층",애월읍,5.0,5.0,19.5,3.9,1.2449899597988732,336554.0,"제주특별자치도 제주시 애월읍 중산간서로 6703, 1층",33.4625695,126.4452044,정좌표
210,봉구식탁,경양식,"제주특별자치도 제주시 애월읍 유수암평화길 14-3, 1층",애월읍,5.0,66.0,316.5,4.795454545454546,0.5614354728816041,336574.0,"제주특별자치도 제주시 애월읍 유수암평화길 14-3, 1층",33.4410845,126.4027191,정좌표
211,통큰코다리하귀점,한식,"제주특별자치도 제주시 애월읍 하귀9길 19, 1층",애월읍,4.0,6.0,25.5,4.25,0.4183300132670378,336734.0,"제주특별자치도 제주시 애월읍 하귀9길 19, 1층",33.4826863,126.415916,정좌표
212,명랑부대찌개,한식,"제주특별자치도 제주시 애월읍 애월로11길 3, 1층",애월읍,5.0,21.0,97.5,4.642857142857143,0.4511889056386787,336762.0,"제주특별자치도 제주시 애월읍 애월로11길 3, 1층",33.4646882,126.3202765,정좌표
213,레그돌,경양식,"제주특별자치도 제주시 애월읍 곽지9길 23, 2층",애월읍,2.0,15.0,64.5,4.3,1.250714081749188,336838.0,"제주특별자치도 제주시 애월읍 곽지9길 23, 2층",33.444932,126.326157,정좌표
214,다운타우너제주애월,경양식,"제주특별자치도 제주시 애월읍 애월로1길 24-9, 1동 1~2층",애월읍,0.5,807.0,3629.5,4.497521685254028,0.8105194267594555,336892.0,"제주특별자치도 제주시 애월읍 애월로1길 24-9, 1동 1~2층",33.4632492,126.3097944,정좌표
215,제주달,일식,제주특별자치도 제주시 애월읍 가문동길 27-8,애월읍,5.0,8.0,35.5,4.4375,1.0500850305706542,338644.0,제주특별자치도 제주시 애월읍 가문동길 27-8,33.4847109,126.3928445,정좌표
216,조식,경양식,"제주특별자치도 제주시 애월읍 어림비로 272, 1층",애월읍,5.0,34.0,165.0,4.852941176470588,0.4357058321763817,338684.0,"제주특별자치도 제주시 애월읍 어림비로 272, 1층",33.4108548,126.330805,정좌표
217,보말이네,한식,"제주특별자치도 제주시 애월읍 유수암평화5길 51, 가동 1층",애월읍,5.0,116.0,551.0,4.75,0.634171832426731,338782.0,"제주특별자치도 제주시 애월읍 유수암평화5길 51, 가동 1층",33.424382,126.4051687,정좌표
218,오태식해바라기치킨앤존맛탱,호프/통닭,"제주특별자치도 제주시 애월읍 애월해안로 570-3, 지하1층",애월읍,5.0,50.0,208.5,4.17,1.1411147431975706,339054.0,"제주특별자치도 제주시 애월읍 애월해안로 570-3, 지하1층",33.4782235,126.3665625,정좌표
219,라이진,중국식,"제주특별자치도 제주시 애월읍 하광로 463-1, 1층",애월읍,5.0,27.0,134.0,4.962962962962963,0.1334401281709059,339198.0,"제주특별자치도 제주시 애월읍 하광로 463-1, 1층",33.4498906,126.4290876,정좌표
220,빅,한식,"제주특별자치도 제주시 애월읍 하귀로23길 1, 1층",애월읍,5.0,1.0,5.0,5.0,,339288.0,"제주특별자치도 제주시 애월읍 하귀로23길 1, 1층",33.4801321,126.4029022,정좌표
221,혁이네식당,기타,"제주특별자치도 제주시 애월읍 광령남3길 9, 1층",애월읍,5.0,16.0,73.0,4.5625,0.6020797289396148,339304.0,"제주특별자치도 제주시 애월읍 광령남3길 9, 1층",33.4505474,126.4319823,정좌표
222,상하이,기타,"제주특별자치도 제주시 애월읍 유수암서길 22, 1층",애월읍,5.0,13.0,55.0,4.230769230769231,0.9040507133494736,339712.0,"제주특별자치도 제주시 애월읍 유수암서길 22, 1층",33.429504,126.3944844,정좌표
223,정가네,한식,제주특별자치도 서귀포시 안덕면 소기왓로 7,안덕면,5.0,3.0,13.5,4.5,0.5,342400.0,제주특별자치도 서귀포시 안덕면 소기왓로 7,33.235672,126.3676591,정좌표
224,양자강,중국식,"제주특별자치도 서귀포시 안덕면 화순중앙로54번길 10, 2층",안덕면,4.0,26.0,113.0,4.346153846153846,0.6894814104706631,342520.0,"제주특별자치도 서귀포시 안덕면 화순중앙로54번길 10, 2층",33.2473678,126.3349284,정좌표
225,그레이그로브,까페,제주특별자치도 서귀포시 안덕면 형제해안로 70,안덕면,5.0,93.0,441.0,4.741935483870968,0.4755597572849788,343888.0,제주특별자치도 서귀포시 안덕면 형제해안로 70,33.2258451,126.2999006,정좌표
226,어멍국수,한식,제주특별자치도 서귀포시 안덕면 화순로 101,안덕면,5.0,6.0,28.0,4.666666666666667,0.4082482904638632,344640.0,제주특별자치도 서귀포시 안덕면 화순로 101,33.2465587,126.335771,정좌표
227,서광우리집식당,한식,제주특별자치도 서귀포시 안덕면 녹차분재로59번길 8,안덕면,5.0,29.0,141.0,4.862068965517241,0.49814928421067317,344676.0,제주특별자치도 서귀포시 안덕면 녹차분재로59번길 8,33.2905253,126.3006556,정좌표
228,카페두가시,경양식,제주특별자치도 서귀포시 안덕면 대평감산로 9,안덕면,4.0,59.0,273.5,4.635593220338983,0.5710736143937067,344850.0,제주특별자치도 서귀포시 안덕면 대평감산로 9,33.2354639,126.3667768,정좌표
229,바당칼국수,한식,제주특별자치도 서귀포시 안덕면 형제해안로 22,안덕면,5.0,77.0,319.5,4.14935064935065,1.0853841639354893,345222.0,제주특별자치도 서귀포시 안덕면 형제해안로 22,33.2279732,126.3042898,정좌표
230,난드르깡통구이,한식,제주특별자치도 서귀포시 안덕면 대평감산로 14,안덕면,4.0,73.0,321.0,4.397260273972603,0.885684387405789,345702.0,제주특별자치도 서귀포시 안덕면 대평감산로 14,33.2361322,126.3670047,정좌표
231,다와매운갈비찜,통닭(치킨),제주특별자치도 서귀포시 안덕면 녹차분재로59번길 6,안덕면,5.0,272.0,1295.0,4.761029411764706,0.8339363638254137,346146.0,제주특별자치도 서귀포시 안덕면 녹차분재로59번길 6,33.2906338,126.3009476,정좌표
232,산드레,기타,제주특별자치도 서귀포시 안덕면 녹차분재로 193,안덕면,4.5,15.0,56.5,3.7666666666666666,1.293757907728306,347976.0,제주특별자치도 서귀포시 안덕면 녹차분재로 193,33.2923161,126.2996588,정좌표
233,마린68,한식,제주특별자치도 서귀포시 안덕면 사계남로 197,안덕면,5.0,6.0,28.5,4.75,0.6123724356957945,349101.0,제주특별자치도 서귀포시 안덕면 사계남로 197,33.2308153,126.3083575,정좌표
234,까사디노아,경양식,제주특별자치도 서귀포시 안덕면 대평로 42,안덕면,5.0,92.0,378.5,4.114130434782608,1.275515971592994,349125.0,제주특별자치도 서귀포시 안덕면 대평로 42,33.2374039,126.3631949,정좌표
235,블루오션,기타,"제주특별자치도 서귀포시 안덕면 사계남로 102, 1,2층",안덕면,5.0,1.0,5.0,5.0,,349331.0,"제주특별자치도 서귀포시 안덕면 사계남로 102, 1,2층",33.230173,126.3018116,정좌표
236,페를로,경양식,"제주특별자치도 서귀포시 안덕면 덕수회관로74번길 33, 1층",안덕면,4.0,382.0,1721.5,4.5065445026178015,0.8727932634315435,349403.0,"제주특별자치도 서귀포시 안덕면 덕수회관로74번길 33, 1층",33.2566272,126.3065103,정좌표
237,빽가한우불고기,한식,"제주특별자치도 서귀포시 안덕면 덕수회관로61번길 40, 1층",안덕면,5.0,38.0,171.5,4.5131578947368425,1.1939421536604442,350235.0,"제주특별자치도 서귀포시 안덕면 덕수회관로61번길 40, 1층",33.2527415,126.3096582,정좌표
238,돈키호테,한식,"제주특별자치도 서귀포시 안덕면 화순로 82, 1층",안덕면,5.0,3.0,15.0,5.0,0.0,350347.0,"제주특별자치도 서귀포시 안덕면 화순로 82, 1층",33.247413,126.3373621,정좌표
239,산방산우리동네,한식,제주특별자치도 서귀포시 안덕면 산방로 289,안덕면,4.5,47.0,223.0,4.74468085106383,0.8397226536542468,350395.0,제주특별자치도 서귀포시 안덕면 산방로 289,33.2386241,126.3146142,정좌표
240,뼈해장순대해장돈풍년,한식,제주특별자치도 서귀포시 안덕면 사계남로21번길 13,안덕면,5.0,1.0,5.0,5.0,,350509.0,제주특별자치도 서귀포시 안덕면 사계남로21번길 13,33.2299383,126.2944628,정좌표
241,고할망네,한식,제주특별자치도 서귀포시 안덕면 사계남로 159-1,안덕면,5.0,39.0,183.0,4.6923076923076925,0.4949133977324323,350513.0,제주특별자치도 서귀포시 안덕면 사계남로 159-1,33.2285158,126.3070598,정좌표
242,광성식당,한식,제주특별자치도 서귀포시 안덕면 화순해안로106번길 12,안덕면,4.0,53.0,245.5,4.632075471698113,0.8035434948032613,350617.0,제주특별자치도 서귀포시 안덕면 화순해안로106번길 12,33.2379287,126.3366308,정좌표
243,덕수아이흑돼지,한식,제주특별자치도 서귀포시 안덕면 덕수회관로 88,안덕면,5.0,32.0,149.0,4.65625,0.9196554403863753,351673.0,제주특별자치도 서귀포시 안덕면 덕수회관로 88,33.2546732,126.3078152,정좌표
244,서광로타리,한식,제주특별자치도 서귀포시 안덕면 화순서서로 492-9,안덕면,3.0,29.0,125.5,4.327586206896552,0.8891796185747117,351801.0,제주특별자치도 서귀포시 안덕면 화순서서로 492-9,33.2859356,126.3031716,정좌표
245,쌍둥이기사식당,한식,제주특별자치도 서귀포시 안덕면 동광로 164,안덕면,4.0,3.0,12.5,4.166666666666667,0.2886751345948129,351937.0,제주특별자치도 서귀포시 안덕면 동광로 164,33.3104382,126.3413657,정좌표
246,호가,중국식,제주특별자치도 서귀포시 안덕면 화순중앙로 64,안덕면,5.0,27.0,121.5,4.5,0.6793662204867575,351949.0,제주특별자치도 서귀포시 안덕면 화순중앙로 64,33.2464921,126.335916,정좌표
247,우와국수,한식,제주특별자치도 서귀포시 안덕면 한창로 146,안덕면,4.5,358.0,1688.5,4.716480446927374,0.7768945675472271,352069.0,제주특별자치도 서귀포시 안덕면 한창로 146,33.2903783,126.3538589,정좌표
248,알동네집화순점,한식,"제주특별자치도 서귀포시 안덕면 화순로 6, 1층",안덕면,5.0,436.0,2101.5,4.819954128440367,0.515543233373468,353509.0,"제주특별자치도 서귀포시 안덕면 화순로 6, 1층",33.2459446,126.3313846,정좌표
249,산들티카페,한식,"제주특별자치도 서귀포시 안덕면 화순중앙로54번길 10, 1층",안덕면,5.0,1.0,5.0,5.0,,355397.0,"제주특별자치도 서귀포시 안덕면 화순중앙로54번길 10, 1층",33.2473678,126.3349284,정좌표
250,커피프렌즈촬영지,경양식,"제주특별자치도 서귀포시 안덕면 중산간서로 2026, 1층",안덕면,5.0,82.0,374.0,4.560975609756097,0.7510907455426056,355401.0,"제주특별자치도 서귀포시 안덕면 중산간서로 2026, 1층",33.288682,126.3072932,정좌표
251,카멜리아힐피크닉,경양식,"제주특별자치도 서귀포시 안덕면 병악로 166, 1층,2층",안덕면,4.5,46.0,193.5,4.206521739130435,0.7270647759352651,355731.0,"제주특별자치도 서귀포시 안덕면 병악로 166, 1층,2층",33.2901143,126.3684044,정좌표
252,카페덕수리2180,기타,제주특별자치도 서귀포시 안덕면 덕수동로25번길 42-8,안덕면,5.0,16.0,79.5,4.96875,0.12499999999999997,355927.0,제주특별자치도 서귀포시 안덕면 덕수동로25번길 42-8,33.258457,126.3074139,정좌표
253,원앤온리,경양식,제주특별자치도 서귀포시 안덕면 산방로 141,안덕면,4.5,2344.0,9792.0,4.177474402730375,1.0197935754869323,355995.0,제주특별자치도 서귀포시 안덕면 산방로 141,33.23923,126.3192943,정좌표
254,뷰스트,경양식,"제주특별자치도 서귀포시 안덕면 형제해안로 30, 지하1층, 1~3층",안덕면,4.5,542.0,2412.5,4.4511070110701105,0.744610128597942,365769.0,"제주특별자치도 서귀포시 안덕면 형제해안로 30, 지하1층, 1~3층",33.231847,126.314641,정좌표
255,치킨과바람피자화순점,호프/통닭,제주특별자치도 서귀포시 안덕면 화순로 101,안덕면,5.0,6.0,27.0,4.5,0.9999999999999999,368009.0,제주특별자치도 서귀포시 안덕면 화순로 101,33.2465587,126.335771,정좌표
256,화순산방산올레,한식,제주특별자치도 서귀포시 안덕면 화순로 135,안덕면,5.0,3.0,14.5,4.833333333333333,0.28867513459481275,368033.0,제주특별자치도 서귀포시 안덕면 화순로 135,33.24625,126.3319099,정좌표
257,올레길회센타,일식,"제주특별자치도 서귀포시 안덕면 화순재남로 5, 1층 102호",안덕면,5.0,29.0,139.5,4.810344827586207,0.4312314820754683,368045.0,"제주특별자치도 서귀포시 안덕면 화순재남로 5, 1층 102호",33.2467315,126.3319769,정좌표
258,순천미향제주산방산본점,한식,제주특별자치도 서귀포시 안덕면 사계남로216번길 24-73,안덕면,5.0,641.0,3060.5,4.774570982839314,0.5964419332333943,368161.0,제주특별자치도 서귀포시 안덕면 사계남로216번길 24-73,33.2356687,126.3125597,정좌표
259,맛짱분식,분식,제주특별자치도 서귀포시 안덕면 화순로 94,안덕면,4.0,1.0,4.0,4.0,,370801.0,제주특별자치도 서귀포시 안덕면 화순로 94,33.2469182,126.3363639,정좌표
260,홀가분키친,한식,제주특별자치도 서귀포시 안덕면 창천중앙로 53-18,안덕면,5.0,3.0,13.0,4.333333333333333,1.1547005383792515,370807.0,제주특별자치도 서귀포시 안덕면 창천중앙로 53-18,33.2674847,126.3678412,정좌표
261,마노르블랑,한식,"제주특별자치도 서귀포시 안덕면 일주서로2100번길 46, 1층",안덕면,4.0,824.0,3462.5,4.202063106796117,1.040846517760403,370825.0,"제주특별자치도 서귀포시 안덕면 일주서로2100번길 46, 1층",33.2542427,126.2946508,정좌표
262,서광춘희,한식,제주특별자치도 서귀포시 안덕면 화순서동로 367,안덕면,5.0,85.0,376.5,4.429411764705883,0.8170538726499769,376137.0,제주특별자치도 서귀포시 안덕면 화순서동로 367,33.2833393,126.3316897,정좌표
263,올레마당,한식,제주특별자치도 서귀포시 안덕면 사계남로 224,안덕면,5.0,1081.0,5183.0,4.794634597594819,0.5189991085645399,376665.0,제주특별자치도 서귀포시 안덕면 사계남로 224,33.2331477,126.3088244,정좌표
264,외갓집아구찜,한식,"제주특별자치도 서귀포시 안덕면 병악로 28, 1층",안덕면,3.0,12.0,49.0,4.083333333333333,1.4275429198026894,381153.0,"제주특별자치도 서귀포시 안덕면 병악로 28, 1층",33.2889938,126.3701172,정좌표
265,돗통,한식,제주특별자치도 서귀포시 안덕면 사계북로41번길 189,안덕면,4.5,115.0,500.0,4.3478260869565215,1.1701212882167655,381221.0,제주특별자치도 서귀포시 안덕면 사계북로41번길 189,33.2450192,126.2983614,정좌표
266,새물국수,기타,제주특별자치도 서귀포시 안덕면 화순해안로 63,안덕면,5.0,146.0,711.0,4.86986301369863,0.3762555740017772,381721.0,제주특별자치도 서귀포시 안덕면 화순해안로 63,33.2412161,126.3336256,정좌표
267,돈아돈아숯불구이,한식,제주특별자치도 서귀포시 안덕면 화순로 87,안덕면,3.5,1.0,3.5,3.5,,382381.0,제주특별자치도 서귀포시 안덕면 화순로 87,33.2467704,126.3371704,정좌표
268,서귀포시축협축산물플라자한우전문식당,식육(숯불구이),제주특별자치도 서귀포시 안덕면 중산간서로 1914-3,안덕면,4.0,55.0,217.5,3.9545454545454546,1.3549385911762148,382387.0,제주특별자치도 서귀포시 안덕면 중산간서로 1914-3,33.2904786,126.3183659,정좌표
269,초이,중국식,"제주특별자치도 서귀포시 안덕면 덕수서로 7, 1층",안덕면,5.0,67.0,304.0,4.537313432835821,0.7896750042850428,382635.0,"제주특별자치도 서귀포시 안덕면 덕수서로 7, 1층",33.2544207,126.3036015,정좌표
270,네네치킨화순안덕점,호프/통닭,제주특별자치도 서귀포시 안덕면 일주서로 1449,안덕면,4.0,30.0,136.0,4.533333333333333,0.7420072187274718,382967.0,제주특별자치도 서귀포시 안덕면 일주서로 1449,33.2542427,126.2946508,정좌표
271,코소롱,기타,"제주특별자치도 서귀포시 대정읍 에듀시티로 148, 1층 103호 (삼정지에듀상가)",대정읍,5.0,10.0,50.0,5.0,0.0,383123.0,"제주특별자치도 서귀포시 대정읍 에듀시티로 148, 1층 103호 (삼정지에듀상가)",33.279669,126.2771757,정좌표
272,꼬끼오옛날통닭,호프/통닭,제주특별자치도 서귀포시 대정읍 신영로 112,대정읍,5.0,9.0,42.5,4.722222222222222,0.4409585518440985,383243.0,제주특별자치도 서귀포시 대정읍 신영로 112,33.2217854,126.2542758,정좌표
273,자금성,중국식,제주특별자치도 서귀포시 대정읍 상모로 318,대정읍,4.0,67.0,299.5,4.470149253731344,0.7681175188995131,383387.0,제주특별자치도 서귀포시 대정읍 상모로 318,33.222679,126.2555098,정좌표
274,블랑로쉐,까페,"제주특별자치도 서귀포시 대정읍 가파로 241, 1,2층",대정읍,4.5,10.0,45.5,4.55,0.6433419688539594,402035.0,"제주특별자치도 서귀포시 대정읍 가파로 241, 1,2층",33.1743589,126.2712056,정좌표
275,보말이야기,한식,제주특별자치도 서귀포시 대정읍 도원로 7,대정읍,3.5,23.0,101.0,4.391304347826087,0.5830273995419087,402155.0,제주특별자치도 서귀포시 대정읍 도원로 7,33.2767255,126.1714121,정좌표
276,홍돈,한식,제주특별자치도 서귀포시 대정읍 노을해안로 104,대정읍,5.0,599.0,2838.5,4.73873121869783,0.6661442938868001,403397.0,제주특별자치도 서귀포시 대정읍 노을해안로 104,33.2437635,126.2179824,정좌표
277,오젠,일식,제주특별자치도 서귀포시 대정읍 송악관광로177번길 253,대정읍,5.0,3.0,12.0,4.0,1.7320508075688772,414149.0,제주특별자치도 서귀포시 대정읍 송악관광로177번길 253,33.2135659,126.2929992,정좌표
278,EQ치킨,통닭(치킨),제주특별자치도 서귀포시 대정읍 상모로289번길 16-6,대정읍,4.5,2.0,9.5,4.75,0.3535533905932738,414257.0,제주특별자치도 서귀포시 대정읍 상모로289번길 16-6,33.2228289,126.2573239,정좌표
279,캔버스,경양식,"제주특별자치도 서귀포시 대정읍 영어도시로 67, 1층",대정읍,4.0,12.0,55.5,4.625,0.48265364958171136,414273.0,"제주특별자치도 서귀포시 대정읍 영어도시로 67, 1층",33.2798179,126.2737676,정좌표
280,마라도포장마차,통닭(치킨),제주특별자치도 서귀포시 대정읍 하모상가로 26,대정읍,5.0,1.0,5.0,5.0,,414375.0,제주특별자치도 서귀포시 대정읍 하모상가로 26,33.2214136,126.2516852,정좌표
281,정원야간회센타,기타,제주특별자치도 서귀포시 대정읍 하모상가로 34-3,대정읍,4.0,4.0,18.0,4.5,0.5773502691896258,414381.0,제주특별자치도 서귀포시 대정읍 하모상가로 34-3,33.2213786,126.2525955,정좌표
282,산동산,한식,제주특별자치도 서귀포시 대정읍 중산간서로 2660,대정읍,4.5,3.0,14.5,4.833333333333333,0.2886751345948129,414405.0,제주특별자치도 서귀포시 대정읍 중산간서로 2660,33.267345,126.2550138,정좌표
283,가파도용궁정식,한식,제주특별자치도 서귀포시 대정읍 가파로67번길 7,대정읍,1.0,84.0,345.5,4.113095238095238,1.1283616187320682,414423.0,제주특별자치도 서귀포시 대정읍 가파로67번길 7,33.1663761,126.2730014,정좌표
284,트라몬토제주모슬포본점,경양식,제주특별자치도 서귀포시 대정읍 하모항구로 38,대정읍,5.0,646.0,3172.0,4.910216718266254,0.404993194812082,414933.0,제주특별자치도 서귀포시 대정읍 하모항구로 38,33.2174692,126.2498802,정좌표
285,모슬포회센터,경양식,"제주특별자치도 서귀포시 대정읍 하모항구로 56-1, 1층",대정읍,5.0,9.0,43.5,4.833333333333333,0.35355339059327384,416379.0,"제주특별자치도 서귀포시 대정읍 하모항구로 56-1, 1층",33.2184108,126.2508719,정좌표
286,박김식당,뷔페식,"제주특별자치도 서귀포시 대정읍 영락중동로 30, 1층",대정읍,2.5,23.0,111.0,4.826086956521739,0.5353141739409991,416415.0,"제주특별자치도 서귀포시 대정읍 영락중동로 30, 1층",33.2588613,126.2117715,정좌표
287,전철우고향랭면,한식,"제주특별자치도 서귀포시 대정읍 형제해안로 316, 1층",대정읍,5.0,38.0,156.5,4.118421052631579,1.3071229523337815,416959.0,"제주특별자치도 서귀포시 대정읍 형제해안로 316, 1층",33.2071934,126.2903538,정좌표
288,해주소반,한식,"제주특별자치도 서귀포시 대정읍 글로벌에듀로 370, 105,106호",대정읍,5.0,126.0,584.0,4.634920634920635,0.8998059755585059,417075.0,"제주특별자치도 서귀포시 대정읍 글로벌에듀로 370, 105,106호",33.2268151,126.2522254,정좌표
289,하모리밥,한식,제주특별자치도 서귀포시 대정읍 최남단해안로125번길 42,대정읍,5.0,31.0,134.0,4.32258064516129,0.91786334401128,419315.0,제주특별자치도 서귀포시 대정읍 최남단해안로125번길 42,33.2134742,126.2617634,정좌표
290,낭꾸러기,한식,제주특별자치도 서귀포시 대정읍 가파로 233,대정읍,5.0,14.0,67.0,4.785714285714286,0.46880723093849525,419397.0,제주특별자치도 서귀포시 대정읍 가파로 233,33.1710594,126.2731193,정좌표
291,갈비가맛있다,식육(숯불구이),"제주특별자치도 서귀포시 대정읍 글로벌에듀로 370, 135호,136호동 1층",대정읍,3.5,12.0,47.5,3.9583333333333335,0.7216878364870322,419445.0,"제주특별자치도 서귀포시 대정읍 글로벌에듀로 370, 135호,136호동 1층",33.2268151,126.2522254,정좌표
292,장가네일품순두부모슬포점,한식,제주특별자치도 서귀포시 대정읍 신영로 59,대정읍,4.0,23.0,97.5,4.239130434782608,1.2142109785351378,419489.0,제주특별자치도 서귀포시 대정읍 신영로 59,33.2208982,126.2494623,정좌표
293,송악산도식후경,한식,제주특별자치도 서귀포시 대정읍 형제해안로 318,대정읍,4.0,32.0,133.5,4.171875,1.126007613278565,419585.0,제주특별자치도 서귀포시 대정읍 형제해안로 318,33.2069506,126.2903317,정좌표
294,순희네,한식,제주특별자치도 서귀포시 대정읍 영서중로 59,대정읍,3.0,2.0,8.0,4.0,1.4142135623730951,419717.0,제주특별자치도 서귀포시 대정읍 영서중로 59,33.2213107,126.2576204,정좌표
295,불타는명태조림,한식,제주특별자치도 서귀포시 대정읍 상모로 289,대정읍,3.5,1.0,3.5,3.5,,419725.0,제주특별자치도 서귀포시 대정읍 상모로 289,33.222978,126.2582595,정좌표
296,소라소라,한식,제주특별자치도 서귀포시 대정읍 형제해안로 318,대정읍,2.5,32.0,125.0,3.90625,1.1530989102302514,419729.0,제주특별자치도 서귀포시 대정읍 형제해안로 318,33.2069506,126.2903317,정좌표
297,나무식탁,일식,제주특별자치도 서귀포시 대정읍 도원로 214,대정읍,4.0,108.0,505.0,4.675925925925926,0.638759073000342,419861.0,제주특별자치도 서귀포시 대정읍 도원로 214,33.2780987,126.1916359,정좌표
298,제주식스어클락,한식,제주특별자치도 서귀포시 대정읍 신영로 33,대정읍,4.5,8.0,37.5,4.6875,0.45806269065645216,422645.0,제주특별자치도 서귀포시 대정읍 신영로 33,33.2227662,126.2481121,정좌표
299,송악산해물라면오빠네본가,횟집,"제주특별자치도 서귀포시 대정읍 형제해안로 296, 1층",대정읍,5.0,171.0,831.0,4.859649122807017,0.49782810018867085,422677.0,"제주특별자치도 서귀포시 대정읍 형제해안로 296, 1층",33.2083197,126.2910436,정좌표
300,샤브왕영어마을점,중국식,"제주특별자치도 서귀포시 대정읍 글로벌에듀로 382, B104,B105호",대정읍,5.0,2.0,10.0,5.0,0.0,423363.0,"제주특별자치도 서귀포시 대정읍 글로벌에듀로 382, B104,B105호",33.2268151,126.2522254,정좌표
301,카페아모르파티,기타,"제주특별자치도 서귀포시 대정읍 상모대서로 43-2, 1층",대정읍,4.5,7.0,32.0,4.571428571428571,0.7319250547113999,423379.0,"제주특별자치도 서귀포시 대정읍 상모대서로 43-2, 1층",33.2267645,126.2581169,정좌표
302,춘자네식당,한식,제주특별자치도 서귀포시 대정읍 가파로67번길 96-1,대정읍,4.0,6.0,26.5,4.416666666666667,0.5845225972250059,424135.0,제주특별자치도 서귀포시 대정읍 가파로67번길 96-1,33.1737256,126.2697515,정좌표
303,날외15,호프/통닭,제주특별자치도 서귀포시 대정읍 일과대수로 15,대정읍,5.0,44.0,205.0,4.659090909090909,0.745316596321753,424159.0,제주특별자치도 서귀포시 대정읍 일과대수로 15,33.2397062,126.2320462,정좌표
304,소문난우리정식뷔페,뷔페식,"제주특별자치도 서귀포시 대정읍 보성구억로 208, 1층",대정읍,4.5,8.0,34.0,4.25,1.362770287738494,424335.0,"제주특별자치도 서귀포시 대정읍 보성구억로 208, 1층",33.2707813,126.2784527,정좌표
305,맘스터치 대정점,패스트푸드,제주특별자치도 서귀포시 대정읍 상모로 302,대정읍,5.0,18.0,81.5,4.527777777777778,0.5278207756822672,424591.0,제주특별자치도 서귀포시 대정읍 상모로 302,33.2231616,126.2570728,정좌표
306,미영이네,한식,제주특별자치도 서귀포시 대정읍 하모항구로 42,대정읍,3.0,740.0,3320.0,4.486486486486487,0.9132647979402164,424695.0,제주특별자치도 서귀포시 대정읍 하모항구로 42,33.2176507,126.2499045,정좌표
307,산방흑돼지순대대정점,한식,"제주특별자치도 서귀포시 대정읍 하모항구로6번길 28, 1층",대정읍,3.0,1.0,3.0,3.0,,427705.0,"제주특별자치도 서귀포시 대정읍 하모항구로6번길 28, 1층",33.2188383,126.250742,정좌표
308,유채꽃향기처럼,기타,제주특별자치도 서귀포시 대정읍 보성구억로 220,대정읍,4.0,6.0,25.5,4.25,0.4183300132670378,427709.0,제주특별자치도 서귀포시 대정읍 보성구억로 220,33.2701192,126.2785591,정좌표
309,신모슬포포구식당,한식,제주특별자치도 서귀포시 대정읍 최남단해안로 119,대정읍,5.0,17.0,66.5,3.911764705882353,1.2898073271525754,428141.0,제주특별자치도 서귀포시 대정읍 최남단해안로 119,33.2114583,126.2566077,정좌표
310,청루봉평메밀막국수전문점,한식,제주특별자치도 서귀포시 대정읍 일주서로 2215,대정읍,5.0,87.0,384.5,4.419540229885057,0.7808521106532107,428209.0,제주특별자치도 서귀포시 대정읍 일주서로 2215,33.2488584,126.2814719,정좌표
311,도니장어,한식,"제주특별자치도 서귀포시 대정읍 상모로 248, 1층",대정읍,3.0,2.0,7.0,3.5,0.7071067811865476,428625.0,"제주특별자치도 서귀포시 대정읍 상모로 248, 1층",33.2244328,126.2625514,정좌표
312,꼬지사께모슬포점,정종/대포집/소주방,제주특별자치도 서귀포시 대정읍 신영로 98-1,대정읍,5.0,1.0,5.0,5.0,,428633.0,제주특별자치도 서귀포시 대정읍 신영로 98-1,33.2208096,126.2535476,정좌표
313,25시해장국,한식,"제주특별자치도 서귀포시 대정읍 최남단해안로125번길 6, 1층",대정읍,3.0,15.0,65.0,4.333333333333333,0.8997354108424374,428637.0,"제주특별자치도 서귀포시 대정읍 최남단해안로125번길 6, 1층",33.2139586,126.2573973,정좌표
314,롯데리아모슬포점,한식,제주특별자치도 서귀포시 대정읍 최남단해안로 13,대정읍,5.0,83.0,372.0,4.481927710843373,0.9121329302878103,429789.0,제주특별자치도 서귀포시 대정읍 최남단해안로 13,33.2195093,126.2525008,정좌표
315,요리하는김선장,한식,제주특별자치도 서귀포시 대정읍 최남단해안로 37,대정읍,1.0,67.0,249.0,3.716417910447761,1.581675082034519,430189.0,제주특별자치도 서귀포시 대정읍 최남단해안로 37,33.2172336,126.2526168,정좌표
316,신호등,한식,제주특별자치도 서귀포시 대정읍 동일하모로 178,대정읍,4.0,1.0,4.0,4.0,,430457.0,제주특별자치도 서귀포시 대정읍 동일하모로 178,33.2257171,126.2501687,정좌표
317,옥돔식당,한식,제주특별자치도 서귀포시 대정읍 신영로36번길 62,대정읍,5.0,304.0,1309.5,4.307565789473684,0.9552574665191729,430505.0,제주특별자치도 서귀포시 대정읍 신영로36번길 62,33.2199418,126.2490877,정좌표
318,영자네국밥,분식,제주특별자치도 서귀포시 대정읍 영서중로13번길 5,대정읍,4.5,5.0,23.5,4.7,0.4472135954999579,431817.0,제주특별자치도 서귀포시 대정읍 영서중로13번길 5,33.2215641,126.2549517,정좌표
319,최고야보리밥정식,한식,"제주특별자치도 서귀포시 대정읍 신영로36번길 69-3, 1층",대정읍,5.0,10.0,44.0,4.4,0.8432740427115677,431837.0,"제주특별자치도 서귀포시 대정읍 신영로36번길 69-3, 1층",33.2204817,126.2486908,정좌표
320,갑부순대국,한식,"제주특별자치도 서귀포시 대정읍 상모로 285, 1층",대정읍,5.0,6.0,30.0,5.0,0.0,431897.0,"제주특별자치도 서귀포시 대정읍 상모로 285, 1층",33.2229422,126.2587869,정좌표
321,제주콩순옥,한식,제주특별자치도 서귀포시 대정읍 신영로 129-2,대정읍,4.5,11.0,43.5,3.9545454545454546,1.2540842366951563,431933.0,제주특별자치도 서귀포시 대정읍 신영로 129-2,33.2234062,126.2549022,정좌표
322,푸라닭대정점,한식,제주특별자치도 서귀포시 대정읍 하모항구로6번길 26,대정읍,5.0,16.0,74.0,4.625,1.0246950765959597,431997.0,제주특별자치도 서귀포시 대정읍 하모항구로6번길 26,33.2187983,126.2517756,정좌표
323,불란지,한식,제주특별자치도 서귀포시 대정읍 하모중앙로 46-6,대정읍,5.0,71.0,310.5,4.373239436619718,0.8812260528019022,432085.0,제주특별자치도 서귀포시 대정읍 하모중앙로 46-6,33.2245387,126.2518322,정좌표
324,막창먹는놈대정점,한식,제주특별자치도 서귀포시 대정읍 신영로 129-3,대정읍,5.0,3.0,10.5,3.5,2.598076211353316,434773.0,제주특별자치도 서귀포시 대정읍 신영로 129-3,33.2234552,126.2549291,정좌표
325,하르방밀면,분식,제주특별자치도 서귀포시 대정읍 동일하모로 229,대정읍,5.0,50.0,223.0,4.46,0.7682474091285001,434791.0,제주특별자치도 서귀포시 대정읍 동일하모로 229,33.2258848,126.2558227,정좌표
326,민들레칼국수,호프/통닭,제주특별자치도 서귀포시 대정읍 영서중로 6,대정읍,5.0,1.0,5.0,5.0,,435703.0,제주특별자치도 서귀포시 대정읍 영서중로 6,33.2208746,126.254517,정좌표
327,우성식당,한식,제주특별자치도 서귀포시 대정읍 영서중로19번길 14,대정읍,5.0,8.0,38.5,4.8125,0.37201190457142247,435715.0,제주특별자치도 서귀포시 대정읍 영서중로19번길 14,33.2224389,126.2556819,정좌표
328,비에이치씨제주모슬포점,한식,제주특별자치도 서귀포시 대정읍 최남단해안로 1,대정읍,5.0,30.0,132.0,4.4,1.077993026655201,436123.0,제주특별자치도 서귀포시 대정읍 최남단해안로 1,33.2202844,126.2522944,정좌표
329,보말과풍경,한식,제주특별자치도 서귀포시 대정읍 하모중앙로 17,대정읍,1.0,87.0,395.5,4.545977011494253,0.9201623463560274,436279.0,제주특별자치도 서귀포시 대정읍 하모중앙로 17,33.2266286,126.2528666,정좌표
330,페리카나모슬포점,호프/통닭,"제주특별자치도 서귀포시 대정읍 상모대서로 25, 1층",대정읍,5.0,6.0,28.0,4.666666666666667,0.5163977794943222,436651.0,"제주특별자치도 서귀포시 대정읍 상모대서로 25, 1층",33.2253156,126.2567608,정좌표
331,굿밥,한식,제주특별자치도 서귀포시 대정읍 글로벌에듀로145번길 40,대정읍,5.0,1.0,5.0,5.0,,436687.0,제주특별자치도 서귀포시 대정읍 글로벌에듀로145번길 40,33.2268151,126.2522254,정좌표
332,산방식당,한식,제주특별자치도 서귀포시 대정읍 하모이삼로 62,대정읍,5.0,354.0,1455.5,4.111581920903955,1.1149797875736203,436693.0,제주특별자치도 서귀포시 대정읍 하모이삼로 62,33.223395,126.2543017,정좌표
333,동복리해녀잠수촌,회집,제주특별자치도 제주시 구좌읍 구좌해안로 32,구좌읍,4.5,59.0,227.5,3.8559322033898304,1.0257497151269372,438185.0,제주특별자치도 제주시 구좌읍 구좌해안로 32,33.5551836,126.71916,정좌표
334,머물다정식,한식,"제주특별자치도 제주시 구좌읍 월정중길 20, 1층",구좌읍,5.0,22.0,102.0,4.636363636363637,1.0371873387954442,438303.0,"제주특별자치도 제주시 구좌읍 월정중길 20, 1층",33.5570683,126.791935,정좌표
335,제인웰빙하우스,한식,제주특별자치도 제주시 구좌읍 해맞이해안로 1852,구좌읍,5.0,271.0,1322.5,4.880073800738008,0.4143374833258921,438349.0,제주특별자치도 제주시 구좌읍 해맞이해안로 1852,33.5222084,126.8980519,정좌표
336,그계절,한식,"제주특별자치도 제주시 구좌읍 한동로 119, 1동 1층",구좌읍,5.0,202.0,898.5,4.448019801980198,0.8440727136180789,441721.0,"제주특별자치도 제주시 구좌읍 한동로 119, 1동 1층",33.5318164,126.8185803,정좌표
337,이스트키친,한식,"제주특별자치도 제주시 구좌읍 해맞이해안로 2486-21, 카동 1층",구좌읍,4.5,31.0,130.5,4.209677419354839,1.1088597262382283,442133.0,"제주특별자치도 제주시 구좌읍 해맞이해안로 2486-21, 카동 1층",33.5291668,126.8538817,정좌표
338,지붕위제주바다,기타,"제주특별자치도 제주시 구좌읍 평대2길 17, 1층",구좌읍,5.0,64.0,298.0,4.65625,0.6835655819026473,442207.0,"제주특별자치도 제주시 구좌읍 평대2길 17, 1층",33.5325767,126.8377169,정좌표
339,김녕함바그집,한식,"제주특별자치도 제주시 구좌읍 김녕로21길 9, 1층",구좌읍,5.0,32.0,144.0,4.5,0.8980265101338745,443231.0,"제주특별자치도 제주시 구좌읍 김녕로21길 9, 1층",33.5567627,126.7554115,정좌표
340,송가네식당,한식,"제주특별자치도 제주시 구좌읍 중산간동로 2245-1, 1층",구좌읍,3.0,9.0,38.5,4.277777777777778,0.97182531580755,443295.0,"제주특별자치도 제주시 구좌읍 중산간동로 2245-1, 1층",33.4721763,126.7825734,정좌표
341,세화야참,한식,"제주특별자치도 제주시 구좌읍 세화3길 4, 1층",구좌읍,5.0,2.0,9.0,4.5,0.7071067811865476,443313.0,"제주특별자치도 제주시 구좌읍 세화3길 4, 1층",33.5236888,126.8560851,정좌표
342,달치즈,호프/통닭,"제주특별자치도 제주시 구좌읍 해녀박물관길 35, 1층",구좌읍,4.5,9.0,42.0,4.666666666666667,0.6614378277661477,443317.0,"제주특별자치도 제주시 구좌읍 해녀박물관길 35, 1층",33.5241707,126.8620995,정좌표
343,대복해장국,한식,"제주특별자치도 제주시 구좌읍 김녕로 132, 1층",구좌읍,2.0,9.0,41.0,4.555555555555555,1.0137937550497031,443335.0,"제주특별자치도 제주시 구좌읍 김녕로 132, 1층",33.554971,126.7521909,정좌표
344,영월갈비,한식,제주특별자치도 제주시 구좌읍 김녕로 95,구좌읍,3.0,5.0,19.5,3.9,1.02469507659596,443355.0,제주특별자치도 제주시 구좌읍 김녕로 95,33.5543473,126.7482823,정좌표
345,세화갈비,호프/통닭,제주특별자치도 제주시 구좌읍 구좌로 39,구좌읍,5.0,10.0,48.5,4.85,0.4743416490252569,443365.0,제주특별자치도 제주시 구좌읍 구좌로 39,33.5235711,126.8558348,정좌표
346,아녜스의앞치마,기타,"제주특별자치도 제주시 구좌읍 행원로5길 25, 1동 1층",구좌읍,5.0,10.0,46.0,4.6,0.5163977794943223,443385.0,"제주특별자치도 제주시 구좌읍 행원로5길 25, 1동 1층",33.5555865,126.8054561,정좌표
347,평대시간이공이오,기타,"제주특별자치도 제주시 구좌읍 해맞이해안로 1156-6, 1층",구좌읍,5.0,10.0,46.5,4.65,0.9442810316143531,443405.0,"제주특별자치도 제주시 구좌읍 해맞이해안로 1156-6, 1층",33.5291668,126.8538817,정좌표
348,두꺼비집,기타,"제주특별자치도 제주시 구좌읍 해맞이해안로 1422-7, 1층",구좌읍,4.5,10.0,38.5,3.85,1.4916433890176295,443425.0,"제주특별자치도 제주시 구좌읍 해맞이해안로 1422-7, 1층",33.5291668,126.8538817,정좌표
349,고래의바다,기타,"제주특별자치도 제주시 구좌읍 해맞이해안로 2340, 2층",구좌읍,5.0,10.0,48.0,4.8,0.6324555320336759,443445.0,"제주특별자치도 제주시 구좌읍 해맞이해안로 2340, 2층",33.492186,126.9096931,정좌표
350,한동밥상,기타,"제주특별자치도 제주시 구좌읍 한동로 153, 1층",구좌읍,5.0,2.0,9.5,4.75,0.3535533905932738,443465.0,"제주특별자치도 제주시 구좌읍 한동로 153, 1층",33.5296627,126.8161486,정좌표
351,장터횟집,기타,"제주특별자치도 제주시 구좌읍 김녕로 88-1, 2층",구좌읍,3.5,9.0,40.0,4.444444444444445,0.7682953714410738,443469.0,"제주특별자치도 제주시 구좌읍 김녕로 88-1, 2층",33.5573814,126.7522424,정좌표
352,장터밥집,기타,"제주특별자치도 제주시 구좌읍 김녕로 88-1, 1층",구좌읍,4.0,10.0,42.5,4.25,0.8249579113843054,443487.0,"제주특별자치도 제주시 구좌읍 김녕로 88-1, 1층",33.5547973,126.7488496,정좌표
353,바다를바라보면,기타,"제주특별자치도 제주시 구좌읍 월정1길 47-1, 1층",구좌읍,4.5,9.0,39.5,4.388888888888889,0.5464532103585001,443507.0,"제주특별자치도 제주시 구좌읍 월정1길 47-1, 1층",33.5562274,126.793166,정좌표
354,세화리움,경양식,"제주특별자치도 제주시 구좌읍 해녀박물관길 29, 1층",구좌읍,5.0,124.0,562.0,4.532258064516129,0.8183414107623915,443667.0,"제주특별자치도 제주시 구좌읍 해녀박물관길 29, 1층",33.523525,126.863486,정좌표
355,평대성게국수,한식,"제주특별자치도 제주시 구좌읍 해맞이해안로 1172, 1층",구좌읍,5.0,166.0,716.0,4.313253012048193,0.9991233835702842,444167.0,"제주특별자치도 제주시 구좌읍 해맞이해안로 1172, 1층",33.5291668,126.8538817,정좌표
356,렌소,한식,"제주특별자치도 제주시 구좌읍 상도북4길 3, 제2동 1층",구좌읍,5.0,8.0,39.5,4.9375,0.17677669529663678,444855.0,"제주특별자치도 제주시 구좌읍 상도북4길 3, 제2동 1층",33.5200888,126.865719,정좌표
357,송당해장국,통닭(치킨),제주특별자치도 제주시 구좌읍 중산간동로 2270,구좌읍,4.0,23.0,102.5,4.456521739130435,0.8245252556672845,444887.0,제주특별자치도 제주시 구좌읍 중산간동로 2270,33.4710708,126.7851332,정좌표
358,종달리엔심야식당,한식,"제주특별자치도 제주시 구좌읍 종달로7길 15, 1층",구좌읍,4.0,81.0,357.0,4.407407407407407,0.8948153130364082,444987.0,"제주특별자치도 제주시 구좌읍 종달로7길 15, 1층",33.4918684,126.898191,정좌표
359,이여도산아,한식,제주특별자치도 제주시 구좌읍 세평항로 46-4,구좌읍,5.0,8.0,34.5,4.3125,1.0329396331413978,445327.0,제주특별자치도 제주시 구좌읍 세평항로 46-4,33.5267849,126.8556816,정좌표
360,우리두리,한식,제주특별자치도 제주시 구좌읍 김녕로 173,구좌읍,4.5,67.0,308.5,4.604477611940299,0.9067813267217076,445359.0,제주특별자치도 제주시 구좌읍 김녕로 173,33.5562298,126.7562411,정좌표
361,쪼끌락,횟집,"제주특별자치도 제주시 구좌읍 김녕로21길 21, 제1호",구좌읍,4.0,233.0,1005.5,4.315450643776824,0.9504181876361947,452159.0,"제주특별자치도 제주시 구좌읍 김녕로21길 21, 제1호",33.5577318,126.7552547,정좌표
362,청파식당횟집,회집,제주특별자치도 제주시 구좌읍 세평항로 12,구좌읍,5.0,199.0,928.5,4.665829145728643,0.6237214728642047,453111.0,제주특별자치도 제주시 구좌읍 세평항로 12,33.5244994,126.8536448,정좌표
363,한거리푸줏간,식육(숯불구이),"제주특별자치도 제주시 구좌읍 월정3길 49, 1층",구좌읍,5.0,63.0,266.0,4.222222222222222,1.1027011475411326,459767.0,"제주특별자치도 제주시 구좌읍 월정3길 49, 1층",33.5553596,126.7945055,정좌표
364,괜찮은술책,한식,"제주특별자치도 제주시 구좌읍 종달로 60-12, 1층",구좌읍,5.0,27.0,123.0,4.555555555555555,0.5937710859953543,460019.0,"제주특별자치도 제주시 구좌읍 종달로 60-12, 1층",33.4920946,126.8955485,정좌표
365,만월당,한식,"제주특별자치도 제주시 구좌읍 월정1길 56, 1층",구좌읍,5.0,1021.0,4737.0,4.639569049951028,0.7108138185827663,460127.0,"제주특별자치도 제주시 구좌읍 월정1길 56, 1층",33.5561414,126.7930377,정좌표
366,월정리맛집춘식탁,한식,"제주특별자치도 제주시 구좌읍 월정7길 61, 1층 제2호",구좌읍,4.0,87.0,395.0,4.540229885057471,0.8005027156113521,485279.0,"제주특별자치도 제주시 구좌읍 월정7길 61, 1층 제2호",33.5551354,126.7952818,정좌표
367,제주하늘래,한식,"제주특별자치도 제주시 구좌읍 선유로 47, 1층",구좌읍,5.0,10.0,50.0,5.0,0.0,485813.0,"제주특별자치도 제주시 구좌읍 선유로 47, 1층",33.5489176,126.7392759,정좌표
368,5길,기타,"제주특별자치도 제주시 구좌읍 평대5길 40, 1층",구좌읍,4.5,233.0,1114.0,4.781115879828326,0.6082653043528806,485873.0,"제주특별자치도 제주시 구좌읍 평대5길 40, 1층",33.5318334,126.842243,정좌표
369,한라산도야지세화점,한식,제주특별자치도 제주시 구좌읍 세평항로 46-8,구좌읍,4.5,31.0,125.0,4.032258064516129,1.2445580465300905,487739.0,제주특별자치도 제주시 구좌읍 세평항로 46-8,33.5266782,126.85595,정좌표
370,외갓집밥상,한식,"제주특별자치도 제주시 구좌읍 일주동로 2841, 1층",구좌읍,4.0,2.0,9.0,4.5,0.7071067811865476,487843.0,"제주특별자치도 제주시 구좌읍 일주동로 2841, 1층",33.5314441,126.8206181,정좌표
371,월정리카페더블유728,기타,"제주특별자치도 제주시 구좌읍 월정1길 101, 1층",구좌읍,5.0,63.0,300.5,4.76984126984127,0.5945003108154377,487855.0,"제주특별자치도 제주시 구좌읍 월정1길 101, 1층",33.5553375,126.7963128,정좌표
372,어등포해녀촌,한식,"제주특별자치도 제주시 구좌읍 행원로13길 131, 1층",구좌읍,5.0,109.0,507.5,4.655963302752293,0.8380346488749237,488023.0,"제주특별자치도 제주시 구좌읍 행원로13길 131, 1층",33.5570082,126.8118893,정좌표
373,세화야,일식,"제주특별자치도 제주시 구좌읍 세평항로 38, 1층",구좌읍,5.0,17.0,75.0,4.411764705882353,0.7952062255644572,488299.0,"제주특별자치도 제주시 구좌읍 세평항로 38, 1층",33.5261548,126.8546643,정좌표
374,섬나라횟집,횟집,제주특별자치도 제주시 구좌읍 해맞이해안로 1404,구좌읍,5.0,12.0,46.5,3.875,1.8601686140582183,488373.0,제주특별자치도 제주시 구좌읍 해맞이해안로 1404,33.5291668,126.8538817,정좌표
375,만물식당,기타,"제주특별자치도 제주시 구좌읍 세평항로 46-6, 1층",구좌읍,4.0,11.0,46.5,4.2272727272727275,0.8174238913695993,488439.0,"제주특별자치도 제주시 구좌읍 세평항로 46-6, 1층",33.5267627,126.8558218,정좌표
376,낙천주의자들,분식,"제주특별자치도 제주시 구좌읍 세화7길 28, 1동 1층",구좌읍,5.0,124.0,582.5,4.69758064516129,0.5660394007483758,488935.0,"제주특별자치도 제주시 구좌읍 세화7길 28, 1동 1층",33.5231924,126.8604234,정좌표
377,소라횟집,횟집,"제주특별자치도 제주시 구좌읍 해맞이해안로 1240-3, 1층",구좌읍,5.0,80.0,358.0,4.475,0.9032290876683092,489225.0,"제주특별자치도 제주시 구좌읍 해맞이해안로 1240-3, 1층",33.5324146,126.8463585,정좌표
378,세화마구간,기타,"제주특별자치도 제주시 구좌읍 면수길 49, 다동 1층",구좌읍,5.0,69.0,312.5,4.528985507246377,0.7664090156037021,489425.0,"제주특별자치도 제주시 구좌읍 면수길 49, 다동 1층",33.5248076,126.8652797,정좌표
379,베이글림림,기타,"제주특별자치도 제주시 구좌읍 월정1길 27, 나동 1층",구좌읍,5.0,31.0,145.5,4.693548387096774,0.7379862166151742,489567.0,"제주특별자치도 제주시 구좌읍 월정1길 27, 나동 1층",33.5562274,126.793166,정좌표
380,구르미스시카페,기타,"제주특별자치도 제주시 구좌읍 해맞이해안로 1248, 1층",구좌읍,5.0,42.0,184.5,4.392857142857143,1.2808900977479336,489629.0,"제주특별자치도 제주시 구좌읍 해맞이해안로 1248, 1층",33.5291668,126.8538817,정좌표
381,미풍해장국구좌세화점,식육(숯불구이),"제주특별자치도 제주시 구좌읍 세화1길 25, 1층",구좌읍,4.0,3.0,11.5,3.8333333333333335,0.7637626158259733,489719.0,"제주특별자치도 제주시 구좌읍 세화1길 25, 1층",33.5256835,126.8546573,정좌표
382,그릉그릉파스타가게,경양식,"제주특별자치도 제주시 구좌읍 구좌로 31, 1층",구좌읍,5.0,10.0,43.5,4.35,0.8514693182963199,489725.0,"제주특별자치도 제주시 구좌읍 구좌로 31, 1층",33.5236205,126.8549288,정좌표
383,쑝쑝돈까스제주구좌점,기타,제주특별자치도 제주시 구좌읍 구좌로 43,구좌읍,5.0,9.0,44.0,4.888888888888889,0.33333333333333337,489745.0,제주특별자치도 제주시 구좌읍 구좌로 43,33.5235008,126.8562232,정좌표
384,월정리달이뜨는식탁,한식,"제주특별자치도 제주시 구좌읍 월정1길 14, 1층",구좌읍,5.0,10.0,48.5,4.85,0.33747427885527653,489765.0,"제주특별자치도 제주시 구좌읍 월정1길 14, 1층",33.5562274,126.793166,정좌표
385,벵디,까페,"제주특별자치도 제주시 구좌읍 해맞이해안로 1108, 1층",구좌읍,1.5,10.0,35.5,3.55,1.4990737881179237,489785.0,"제주특별자치도 제주시 구좌읍 해맞이해안로 1108, 1층",33.5377667,126.8372139,정좌표
386,숙자네숟가락젓가락,식육(숯불구이),제주특별자치도 제주시 구좌읍 세평항로 45-2,구좌읍,4.5,10.0,48.0,4.8,0.3496029493900508,489805.0,제주특별자치도 제주시 구좌읍 세평항로 45-2,33.5274415,126.8549344,정좌표
387,세화족발,경양식,"제주특별자치도 제주시 구좌읍 해맞이해안로 1460, 2층",구좌읍,4.5,10.0,49.0,4.9,0.21081851067789198,489825.0,"제주특별자치도 제주시 구좌읍 해맞이해안로 1460, 2층",33.5244174,126.8613857,정좌표
388,쯔루네,한식,"제주특별자치도 제주시 구좌읍 김녕로1길 90, 제2호",구좌읍,5.0,10.0,48.0,4.8,0.42163702135578396,489845.0,"제주특별자치도 제주시 구좌읍 김녕로1길 90, 제2호",33.5572557,126.7524725,정좌표
389,명천,한식,제주특별자치도 제주시 구좌읍 구좌로 10,구좌읍,5.0,8.0,40.0,5.0,0.0,489865.0,제주특별자치도 제주시 구좌읍 구좌로 10,33.5234059,126.8526937,정좌표
390,동복뚝배기,한식,"제주특별자치도 제주시 구좌읍 동복로 30-2, 1층",구좌읍,5.0,10.0,47.5,4.75,0.42491829279939874,489885.0,"제주특별자치도 제주시 구좌읍 동복로 30-2, 1층",33.5531846,126.7093486,정좌표
391,이디,기타,"제주특별자치도 제주시 구좌읍 해녀박물관길 33-2, 제1동 1층",구좌읍,5.0,20.0,93.0,4.65,0.7451598203705948,489905.0,"제주특별자치도 제주시 구좌읍 해녀박물관길 33-2, 제1동 1층",33.523525,126.863486,정좌표
392,백년가야밀면,한식,"제주특별자치도 제주시 구좌읍 일주동로 3111, 1층",구좌읍,5.0,67.0,297.0,4.432835820895522,0.8066744414291291,491345.0,"제주특별자치도 제주시 구좌읍 일주동로 3111, 1층",33.5314441,126.8206181,정좌표
393,카페제주동네,까페,제주특별자치도 제주시 구좌읍 종달로5길 23,구좌읍,4.0,10.0,47.5,4.75,0.42491829279939886,492857.0,제주특별자치도 제주시 구좌읍 종달로5길 23,33.4932812,126.8986983,정좌표
394,오늘식당,한식,"제주특별자치도 제주시 구좌읍 일주동로 2966, 1층",구좌읍,4.0,2.0,6.0,3.0,1.4142135623730951,492877.0,"제주특별자치도 제주시 구좌읍 일주동로 2966, 1층",33.5314441,126.8206181,정좌표
395,대수굴식당,한식,"제주특별자치도 제주시 구좌읍 대수길 10-4, 1동 1층",구좌읍,5.0,10.0,45.0,4.5,1.4142135623730951,492881.0,"제주특별자치도 제주시 구좌읍 대수길 10-4, 1동 1층",33.5361149,126.8394287,정좌표
396,종달부부,한식,"제주특별자치도 제주시 구좌읍 종달로1길 124-4, 제2동 1층",구좌읍,3.0,10.0,44.5,4.45,0.7619419633774973,492901.0,"제주특별자치도 제주시 구좌읍 종달로1길 124-4, 제2동 1층",33.4959391,126.9082605,정좌표
397,세컨드스토리,기타,"제주특별자치도 제주시 구좌읍 월정1길 1, 1층",구좌읍,5.0,10.0,50.0,5.0,0.0,492921.0,"제주특별자치도 제주시 구좌읍 월정1길 1, 1층",33.5520913,126.7910846,정좌표
398,괜찮아,기타,"제주특별자치도 제주시 구좌읍 해녀박물관길 27, 1층",구좌읍,5.0,10.0,39.5,3.95,1.3632070031119017,492941.0,"제주특별자치도 제주시 구좌읍 해녀박물관길 27, 1층",33.5234279,126.8624058,정좌표
399,마니,기타,"제주특별자치도 제주시 구좌읍 해맞이해안로 1112, 1층",구좌읍,5.0,10.0,46.5,4.65,0.47434164902525694,492961.0,"제주특별자치도 제주시 구좌읍 해맞이해안로 1112, 1층",33.5375069,126.8375756,정좌표
400,해맞이카페,기타,"제주특별자치도 제주시 구좌읍 해맞이해안로 466, 1층",구좌읍,3.0,10.0,29.0,2.9,1.8226964152656424,493081.0,"제주특별자치도 제주시 구좌읍 해맞이해안로 466, 1층",33.5291668,126.8538817,정좌표
401,월정리유메이우동,한식,"제주특별자치도 제주시 구좌읍 월정3길 52, 1층 제1호",구좌읍,4.0,10.0,47.0,4.7,0.5374838498865699,493101.0,"제주특별자치도 제주시 구좌읍 월정3길 52, 1층 제1호",33.5553643,126.7948091,정좌표
402,따소롬,기타,"제주특별자치도 제주시 구좌읍 월정1길 72-1, 1층",구좌읍,5.0,101.0,488.0,4.8316831683168315,0.443154756957275,493121.0,"제주특별자치도 제주시 구좌읍 월정1길 72-1, 1층",33.5572691,126.7938479,정좌표
403,본초불닭발김녕점,한식,제주특별자치도 제주시 구좌읍 김녕로 80,구좌읍,5.0,17.0,78.0,4.588235294117647,1.1072953269911652,493331.0,제주특별자치도 제주시 구좌읍 김녕로 80,33.5541903,126.7467609,정좌표
404,세화그때그집,한식,"제주특별자치도 제주시 구좌읍 세평항로 43, 1층",구좌읍,5.0,377.0,1772.5,4.701591511936339,0.8484639517236836,493371.0,"제주특별자치도 제주시 구좌읍 세평항로 43, 1층",33.5261548,126.8546643,정좌표
405,정한가든,한식,제주특별자치도 제주시 구좌읍 세화1길 6,구좌읍,4.5,8.0,27.5,3.4375,1.4252192813739224,494167.0,제주특별자치도 제주시 구좌읍 세화1길 6,33.5241096,126.854495,정좌표
406,레이식당,분식,"제주특별자치도 제주시 구좌읍 해맞이해안로 1156-5, 제2호",구좌읍,5.0,64.0,302.0,4.71875,0.6659222033784281,494183.0,"제주특별자치도 제주시 구좌읍 해맞이해안로 1156-5, 제2호",33.5359307,126.839765,정좌표
407,짜장앤짬뽕,중국식,"제주특별자치도 제주시 구좌읍 일주동로 2023, 1층",구좌읍,5.0,9.0,35.5,3.9444444444444446,1.333333333333333,494315.0,"제주특별자치도 제주시 구좌읍 일주동로 2023, 1층",33.5314441,126.8206181,정좌표
408,고래날다,한식,"제주특별자치도 제주시 구좌읍 월정3길 53-7, 1층",구좌읍,5.0,10.0,50.0,5.0,0.0,494335.0,"제주특별자치도 제주시 구좌읍 월정3길 53-7, 1층",33.5561885,126.7943529,정좌표
409,월정리갈비밥,한식,"제주특별자치도 제주시 구좌읍 월정7길 46, 1층 제1호",구좌읍,5.0,10.0,44.0,4.4,1.286683937707919,494355.0,"제주특별자치도 제주시 구좌읍 월정7길 46, 1층 제1호",33.5548185,126.7969015,정좌표
410,바다향기,한식,제주특별자치도 제주시 구좌읍 행원로1길 32,구좌읍,3.5,14.0,53.0,3.7857142857142856,1.138728807356386,494375.0,제주특별자치도 제주시 구좌읍 행원로1길 32,33.5548917,126.8000825,정좌표
411,니모스토리,기타,"제주특별자치도 제주시 구좌읍 김녕로17길 33-1, 1층",구좌읍,5.0,10.0,49.0,4.9,0.31622776601683794,499863.0,"제주특별자치도 제주시 구좌읍 김녕로17길 33-1, 1층",33.5582612,126.7541067,정좌표
412,종달수다뜰,한식,제주특별자치도 제주시 구좌읍 용눈이오름로 8,구좌읍,5.0,10.0,40.0,4.0,1.8708286933869707,499883.0,제주특별자치도 제주시 구좌읍 용눈이오름로 8,33.4918686,126.893156,정좌표
413,모다,한식,"제주특별자치도 제주시 구좌읍 구좌해안로 52-13, A동 1층",구좌읍,5.0,3.0,15.0,5.0,0.0,499903.0,"제주특별자치도 제주시 구좌읍 구좌해안로 52-13, A동 1층",33.5561229,126.7205363,정좌표
414,치킨과바람피자,분식,"제주특별자치도 제주시 구좌읍 구좌로 91, 1층",구좌읍,4.0,22.0,76.5,3.477272727272727,1.546711355526951,499939.0,"제주특별자치도 제주시 구좌읍 구좌로 91, 1층",33.521876,126.861331,정좌표
415,흙먹는고양이,기타,"제주특별자치도 제주시 구좌읍 계룡길 26-20, 1층",구좌읍,3.5,9.0,40.0,4.444444444444445,0.726483157256779,500215.0,"제주특별자치도 제주시 구좌읍 계룡길 26-20, 1층",33.5381975,126.8358544,정좌표
416,하도테이블,한식,"제주특별자치도 제주시 구좌읍 하도9길 72, E동 1층",구좌읍,5.0,10.0,49.0,4.9,0.316227766016838,500375.0,"제주특별자치도 제주시 구좌읍 하도9길 72, E동 1층",33.5141491,126.8877209,정좌표
417,얼랑핀칙하도야,한식,"제주특별자치도 제주시 구좌읍 해맞이해안로 1588-42, 1층",구좌읍,5.0,10.0,49.0,4.9,0.21081851067789192,500395.0,"제주특별자치도 제주시 구좌읍 해맞이해안로 1588-42, 1층",33.5291668,126.8538817,정좌표
418,릴로,기타,"제주특별자치도 제주시 구좌읍 종달로 60-12, 1층",구좌읍,5.0,9.0,44.5,4.944444444444445,0.16666666666666663,500415.0,"제주특별자치도 제주시 구좌읍 종달로 60-12, 1층",33.4920946,126.8955485,정좌표
419,담백,"외국음식전문점(인도,태국등)","제주특별자치도 제주시 구좌읍 해맞이해안로 518, 1층",구좌읍,5.0,10.0,47.5,4.75,0.35355339059327373,500435.0,"제주특별자치도 제주시 구좌읍 해맞이해안로 518, 1층",33.5291668,126.8538817,정좌표
420,서울촌놈인제주김녕점,경양식,"제주특별자치도 제주시 구좌읍 해맞이해안로 140, 1~2층",구좌읍,3.0,10.0,43.0,4.3,0.9775252199076787,500455.0,"제주특별자치도 제주시 구좌읍 해맞이해안로 140, 1~2층",33.5291668,126.8538817,정좌표
421,세화통닭,호프/통닭,"제주특별자치도 제주시 구좌읍 세화1길 8, 1층",구좌읍,2.0,8.0,31.5,3.9375,1.0155048005794949,500475.0,"제주특별자치도 제주시 구좌읍 세화1길 8, 1층",33.5242314,126.8546011,정좌표
422,세평맛집,한식,제주특별자치도 제주시 구좌읍 세평항로 1,구좌읍,5.0,4.0,20.0,5.0,0.0,500491.0,제주특별자치도 제주시 구좌읍 세평항로 1,33.5238501,126.8527535,정좌표
423,만조식당,한식,제주특별자치도 제주시 구좌읍 평대13길 54,구좌읍,3.5,5.0,21.5,4.3,0.6708203932499369,500499.0,제주특별자치도 제주시 구좌읍 평대13길 54,33.5270421,126.8546383,정좌표
424,장안해물칼국수,한식,"제주특별자치도 제주시 구좌읍 김녕로 173, 1층",구좌읍,5.0,10.0,42.0,4.2,0.8563488385776751,500509.0,"제주특별자치도 제주시 구좌읍 김녕로 173, 1층",33.5562298,126.7562411,정좌표
425,섬노예,호프/통닭,제주특별자치도 제주시 구좌읍 세화2길 3,구좌읍,5.0,9.0,43.5,4.833333333333333,0.3535533905932738,500529.0,제주특별자치도 제주시 구좌읍 세화2길 3,33.5231847,126.8558743,정좌표
426,레드썬셋,기타,"제주특별자치도 제주시 구좌읍 구좌해안로 16, 1층",구좌읍,5.0,8.0,35.5,4.4375,1.050085030570654,500549.0,"제주특별자치도 제주시 구좌읍 구좌해안로 16, 1층",33.5570179,126.7278068,정좌표
427,지미스테이,기타,"제주특별자치도 제주시 구좌읍 하도15길 153-3, 1층",구좌읍,4.0,9.0,36.0,4.0,0.82915619758885,500677.0,"제주특별자치도 제주시 구좌읍 하도15길 153-3, 1층",33.5148156,126.8960812,정좌표
428,차우,기타,"제주특별자치도 제주시 구좌읍 월정1길 10, 1층",구좌읍,5.0,10.0,49.0,4.9,0.31622776601683794,500837.0,"제주특별자치도 제주시 구좌읍 월정1길 10, 1층",33.5530132,126.791046,정좌표
429,바미아일랜드,경양식,"제주특별자치도 제주시 구좌읍 해맞이해안로 474-1, 1층",구좌읍,5.0,173.0,761.0,4.398843930635838,0.8386720150073884,500857.0,"제주특별자치도 제주시 구좌읍 해맞이해안로 474-1, 1층",33.5291668,126.8538817,정좌표
430,편안한맛집,한식,제주특별자치도 제주시 구좌읍 김녕로 106,구좌읍,3.0,32.0,136.0,4.25,0.9069623173877127,501219.0,제주특별자치도 제주시 구좌읍 김녕로 106,33.5542246,126.7494406,정좌표
431,민경이네어등포해녀촌,한식,"제주특별자치도 제주시 구좌읍 해맞이해안로 830, 1층",구좌읍,4.5,220.0,955.5,4.343181818181818,0.9099645553016639,501285.0,"제주특별자치도 제주시 구좌읍 해맞이해안로 830, 1층",33.5593822,126.7931782,정좌표
432,종달아구찜,한식,"제주특별자치도 제주시 구좌읍 종달논길 48, 1층",구좌읍,5.0,17.0,81.0,4.764705882352941,0.3999080776731515,501737.0,"제주특별자치도 제주시 구좌읍 종달논길 48, 1층",33.4928117,126.9001419,정좌표
433,윤스타피자앤파스타,기타,"제주특별자치도 제주시 구좌읍 문주란로1길 74-20, 1층",구좌읍,5.0,257.0,1233.5,4.799610894941634,0.6901368780943654,501781.0,"제주특별자치도 제주시 구좌읍 문주란로1길 74-20, 1층",33.5248874,126.8842862,정좌표
434,행원바당손칼국수,한식,"제주특별자치도 제주시 구좌읍 해맞이해안로 820, 1동 1층",구좌읍,0.5,43.0,181.0,4.209302325581396,1.2594053686615403,502371.0,"제주특별자치도 제주시 구좌읍 해맞이해안로 820, 1동 1층",33.5291668,126.8538817,정좌표
435,모다정,한식,제주특별자치도 제주시 구좌읍 세평항로 26,구좌읍,4.0,164.0,718.5,4.3810975609756095,1.011987664632454,502459.0,제주특별자치도 제주시 구좌읍 세평항로 26,33.5255713,126.8544176,정좌표
436,그초록,경양식,"제주특별자치도 제주시 구좌읍 행원로7길 23-16, 1층",구좌읍,5.0,239.0,1083.5,4.53347280334728,0.6759127584461944,505131.0,"제주특별자치도 제주시 구좌읍 행원로7길 23-16, 1층",33.5564111,126.8064452,정좌표
437,월정에뜬닭,호프/통닭,"제주특별자치도 제주시 구좌읍 해맞이해안로 460, 1층",구좌읍,4.0,24.0,100.5,4.1875,0.7775728681078008,505645.0,"제주특별자치도 제주시 구좌읍 해맞이해안로 460, 1층",33.5556406,126.7958901,정좌표
438,마니해장국,경양식,"제주특별자치도 제주시 구좌읍 일주동로 2431, 1층",구좌읍,5.0,6.0,28.5,4.75,0.41833001326703784,505695.0,"제주특별자치도 제주시 구좌읍 일주동로 2431, 1층",33.5314441,126.8206181,정좌표
439,세화잠수촌,한식,제주특별자치도 제주시 구좌읍 해맞이해안로 1391,구좌읍,3.5,23.0,92.0,4.0,1.3734495390671027,505707.0,제주특별자치도 제주시 구좌읍 해맞이해안로 1391,33.5545797,126.7993253,정좌표
440,하도1940,기타,"제주특별자치도 제주시 구좌읍 해맞이해안로 1681-3, 1층",구좌읍,5.0,53.0,243.0,4.584905660377358,0.6258521041855637,505755.0,"제주특별자치도 제주시 구좌읍 해맞이해안로 1681-3, 1층",33.5276726,126.8825022,정좌표
441,길리,까페,"제주특별자치도 제주시 구좌읍 월정1길 65, 1층",구좌읍,3.0,87.0,411.0,4.724137931034483,0.48679433536130606,505863.0,"제주특별자치도 제주시 구좌읍 월정1길 65, 1층",33.5566513,126.7937413,정좌표
442,순희밥상,한식,제주특별자치도 제주시 구좌읍 종달로5길 38,구좌읍,5.0,42.0,197.0,4.690476190476191,0.44106828397267117,506049.0,제주특별자치도 제주시 구좌읍 종달로5길 38,33.4928739,126.899942,정좌표
443,신미국밥,한식,제주특별자치도 제주시 구좌읍 김녕로 108,구좌읍,4.0,22.0,86.0,3.909090909090909,1.1612428034157407,506137.0,제주특별자치도 제주시 구좌읍 김녕로 108,33.5543286,126.7496437,정좌표
444,열두마루,까페,제주특별자치도 제주시 구좌읍 한동로1길 38,구좌읍,5.0,116.0,579.5,4.995689655172414,0.04642383454426303,506193.0,제주특별자치도 제주시 구좌읍 한동로1길 38,33.5356983,126.8254619,정좌표
445,바당지기동복점,한식,"제주특별자치도 제주시 구좌읍 일주동로 1754, 1층",구좌읍,5.0,12.0,49.0,4.083333333333333,1.662874473660449,506431.0,"제주특별자치도 제주시 구좌읍 일주동로 1754, 1층",33.5532513,126.7196972,정좌표
446,아로미에식당,한식,제주특별자치도 제주시 구좌읍 세평항로 46-12,구좌읍,5.0,10.0,47.5,4.75,0.42491829279939897,506457.0,제주특별자치도 제주시 구좌읍 세평항로 46-12,33.5269861,126.8560945,정좌표
447,소금밭,한식,"제주특별자치도 제주시 구좌읍 종달동길 29-3, 1층",구좌읍,4.5,3.0,8.5,2.8333333333333335,1.7559422921421233,506479.0,"제주특별자치도 제주시 구좌읍 종달동길 29-3, 1층",33.4914879,126.9028617,정좌표
448,빠삭,한식,"제주특별자치도 제주시 구좌읍 월정3길 53-2, 1층",구좌읍,4.0,24.0,90.5,3.7708333333333335,1.0527310927407763,506487.0,"제주특별자치도 제주시 구좌읍 월정3길 53-2, 1층",33.5559973,126.7949942,정좌표
449,영아네맛집,분식,제주특별자치도 제주시 구좌읍 구좌로 46,구좌읍,5.0,2.0,10.0,5.0,0.0,506537.0,제주특별자치도 제주시 구좌읍 구좌로 46,33.5231278,126.8563552,정좌표
450,빨간맛집세화점,한식,"제주특별자치도 제주시 구좌읍 구좌로 46, 1층",구좌읍,5.0,10.0,44.5,4.45,0.7245688373094719,506561.0,"제주특별자치도 제주시 구좌읍 구좌로 46, 1층",33.5231278,126.8563552,정좌표
451,제주담식당,한식,제주특별자치도 제주시 구좌읍 비자림로 1575,구좌읍,0.5,24.0,93.5,3.8958333333333335,1.5671850052178622,506585.0,제주특별자치도 제주시 구좌읍 비자림로 1575,33.4683292,126.7739707,정좌표
452,임풍해장국,한식,"제주특별자치도 제주시 구좌읍 김녕로 141, B동 101호",구좌읍,5.0,34.0,151.0,4.4411764705882355,0.9191951838952688,506635.0,"제주특별자치도 제주시 구좌읍 김녕로 141, B동 101호",33.5555934,126.7531231,정좌표
453,라쿤하우스,패밀리레스트랑,"제주특별자치도 제주시 구좌읍 김녕로17길 22-10, 1층",구좌읍,5.0,42.0,191.0,4.5476190476190474,0.8890219606160511,506705.0,"제주특별자치도 제주시 구좌읍 김녕로17길 22-10, 1층",33.5575787,126.7546442,정좌표
454,바당앤콩밭발효카페,한식,"제주특별자치도 제주시 구좌읍 한동로 27, 1층",구좌읍,5.0,1.0,5.0,5.0,,506791.0,"제주특별자치도 제주시 구좌읍 한동로 27, 1층",33.537265,126.8245741,정좌표
455,두문포갈치,한식,"제주특별자치도 제주시 구좌읍 해맞이해안로 2286, 1층",구좌읍,5.0,66.0,313.5,4.75,0.4043037700313199,506793.0,"제주특별자치도 제주시 구좌읍 해맞이해안로 2286, 1층",33.5291668,126.8538817,정좌표
456,본전,한식,제주특별자치도 제주시 구좌읍 세평항로 24,구좌읍,5.0,1.0,5.0,5.0,,506927.0,제주특별자치도 제주시 구좌읍 세평항로 24,33.5254289,126.8543269,정좌표
457,바다는안보여요,분식,제주특별자치도 제주시 구좌읍 종달로5길 31-1,구좌읍,4.5,28.0,133.5,4.767857142857143,0.3722340675679768,506959.0,제주특별자치도 제주시 구좌읍 종달로5길 31-1,33.4933215,126.8994833,정좌표
458,월정포구,한식,"제주특별자치도 제주시 구좌읍 월정1길 70-16, 1층",구좌읍,5.0,23.0,101.0,4.391304347826087,0.6563764465043604,507019.0,"제주특별자치도 제주시 구좌읍 월정1길 70-16, 1층",33.5569096,126.7939703,정좌표
459,돼지앤,식육(숯불구이),"제주특별자치도 제주시 구좌읍 세화1길 33, 1층",구좌읍,5.0,1.0,5.0,5.0,,507065.0,"제주특별자치도 제주시 구좌읍 세화1길 33, 1층",33.5262327,126.8551702,정좌표
460,한울타리한우정육식당,한식,"제주특별자치도 제주시 구좌읍 송당서길 5, 1층",구좌읍,5.0,36.0,152.5,4.236111111111111,1.0588815602937651,507067.0,"제주특별자치도 제주시 구좌읍 송당서길 5, 1층",33.4764906,126.7882841,정좌표
461,요레,한식,"제주특별자치도 제주시 구좌읍 해맞이해안로 1450-1, 1층",구좌읍,5.0,17.0,79.0,4.647058823529412,0.9963167462326072,507155.0,"제주특별자치도 제주시 구좌읍 해맞이해안로 1450-1, 1층",33.5240588,126.8612475,정좌표
462,삼다버거,기타,"제주특별자치도 제주시 구좌읍 선유로 80, 1층",구좌읍,5.0,100.0,458.5,4.585,0.6706509727665558,507189.0,"제주특별자치도 제주시 구좌읍 선유로 80, 1층",33.54818,126.7359591,정좌표
463,우미정,한식,제주특별자치도 제주시 구좌읍 세화2길 7,구좌읍,5.0,10.0,45.0,4.5,0.8498365855987975,507391.0,제주특별자치도 제주시 구좌읍 세화2길 7,33.523002,126.8561071,정좌표
464,포세화,한식,"제주특별자치도 제주시 구좌읍 구좌로 46, 1층",구좌읍,5.0,30.0,144.0,4.8,0.44721359549995804,507471.0,"제주특별자치도 제주시 구좌읍 구좌로 46, 1층",33.5231278,126.8563552,정좌표
465,제주삼다장앤장충동왕족발,한식,"제주특별자치도 제주시 구좌읍 비자숲길 15, 1동 1층",구좌읍,5.0,350.0,1654.5,4.727142857142857,0.6646888727705134,507533.0,"제주특별자치도 제주시 구좌읍 비자숲길 15, 1동 1층",33.495364,126.8120934,정좌표
466,다래향2호점,중국식,"제주특별자치도 제주시 구좌읍 세화1길 4, 1층",구좌읍,5.0,98.0,420.0,4.285714285714286,1.0697335635134653,508259.0,"제주특별자치도 제주시 구좌읍 세화1길 4, 1층",33.5265212,126.856318,정좌표
467,헛간,호프/통닭,"제주특별자치도 제주시 구좌읍 덕평로 9-8, 1층",구좌읍,5.0,18.0,86.0,4.777777777777778,0.3523960932472831,508471.0,"제주특별자치도 제주시 구좌읍 덕평로 9-8, 1층",33.4841817,126.7461723,정좌표
468,평대앓이,경양식,"제주특별자치도 제주시 구좌읍 비자림로 2718-3, 1층",구좌읍,5.0,72.0,351.5,4.881944444444445,0.29661298770577016,508509.0,"제주특별자치도 제주시 구좌읍 비자림로 2718-3, 1층",33.467852,126.7724183,정좌표
469,브릭스제주,기타,"제주특별자치도 제주시 구좌읍 김녕로2길 6, 1층",구좌읍,5.0,14.0,66.5,4.75,0.7002746713858895,508657.0,"제주특별자치도 제주시 구좌읍 김녕로2길 6, 1층",33.5546239,126.7430191,정좌표
470,수필하우스,한식,제주특별자치도 제주시 구좌읍 종달논길 50-1,구좌읍,4.0,1.0,4.0,4.0,,508685.0,제주특별자치도 제주시 구좌읍 종달논길 50-1,33.4929529,126.8996021,정좌표
471,욜로펜션카페,기타,"제주특별자치도 제주시 구좌읍 문주란로 58, 1동 1층",구좌읍,4.0,1.0,4.0,4.0,,508687.0,"제주특별자치도 제주시 구좌읍 문주란로 58, 1동 1층",33.5223661,126.8834726,정좌표
472,세러데이아일랜드,"외국음식전문점(인도,태국등)","제주특별자치도 제주시 구좌읍 평대7길 51, 1층",구좌읍,5.0,76.0,364.5,4.796052631578948,0.572582637872458,508703.0,"제주특별자치도 제주시 구좌읍 평대7길 51, 1층",33.5325407,126.8441262,정좌표
473,야미야미치킨,호프/통닭,"제주특별자치도 제주시 구좌읍 월정3길 52, 1층",구좌읍,5.0,14.0,67.0,4.785714285714286,0.5447047794019222,509639.0,"제주특별자치도 제주시 구좌읍 월정3길 52, 1층",33.5553643,126.7948091,정좌표
474,어멍이해녀,한식,"제주특별자치도 제주시 구좌읍 해맞이해안로 2244, 1층",구좌읍,4.0,127.0,579.5,4.562992125984252,0.7992857078633714,509759.0,"제주특별자치도 제주시 구좌읍 해맞이해안로 2244, 1층",33.5246476,126.8599392,정좌표
475,오스모시스,기타,"제주특별자치도 제주시 구좌읍 해맞이해안로 1026, 1동 1층",구좌읍,5.0,37.0,170.0,4.594594594594595,0.7152877998656462,510027.0,"제주특별자치도 제주시 구좌읍 해맞이해안로 1026, 1동 1층",33.5404929,126.8307706,정좌표
476,한라산,한식,"제주특별자치도 제주시 구좌읍 면수1길 48, 2동 1층",구좌읍,5.0,738.0,3453.5,4.679539295392954,0.56402921890935,510107.0,"제주특별자치도 제주시 구좌읍 면수1길 48, 2동 1층",33.5247614,126.8629928,정좌표
477,영희네우럭명가,한식,"제주특별자치도 제주시 구좌읍 세화1길 27, 1층",구좌읍,5.0,123.0,558.0,4.536585365853658,0.9499152932626415,511601.0,"제주특별자치도 제주시 구좌읍 세화1길 27, 1층",33.5254154,126.855013,정좌표
478,풍미독서,기타,"제주특별자치도 제주시 구좌읍 세화합전2길 7, 1층 1호",구좌읍,4.0,221.0,974.5,4.409502262443439,0.9867072082272361,513649.0,"제주특별자치도 제주시 구좌읍 세화합전2길 7, 1층 1호",33.5137935,126.8591021,정좌표
479,오조파스타앤피자,기타,"제주특별자치도 제주시 구좌읍 해녀박물관길 30, 1층",구좌읍,5.0,27.0,129.5,4.796296296296297,0.39853721135159864,514097.0,"제주특별자치도 제주시 구좌읍 해녀박물관길 30, 1층",33.5238469,126.8627755,정좌표
480,구슬함박,경양식,"제주특별자치도 제주시 구좌읍 해맞이해안로 1460, 세화팬션 숨비 1층",구좌읍,5.0,21.0,101.0,4.809523809523809,0.4023739080814783,514209.0,"제주특별자치도 제주시 구좌읍 해맞이해안로 1460, 세화팬션 숨비 1층",33.5160918,126.8632246,정좌표
481,비자림휴게소,분식,"제주특별자치도 제주시 구좌읍 비자숲길 62, 비자림 1층",구좌읍,3.0,10.0,37.5,3.75,1.1843892002959913,514275.0,"제주특별자치도 제주시 구좌읍 비자숲길 62, 비자림 1층",33.484272,126.8064793,정좌표
482,흙소담,한식,"제주특별자치도 제주시 구좌읍 해맞이해안로 2484, 1층 107호",구좌읍,5.0,9.0,44.5,4.944444444444445,0.1666666666666666,514315.0,"제주특별자치도 제주시 구좌읍 해맞이해안로 2484, 1층 107호",33.5291668,126.8538817,정좌표
483,섭섭이네,경양식,"제주특별자치도 제주시 구좌읍 중산간동로 2261, 1층",구좌읍,4.0,172.0,777.5,4.520348837209302,0.7342051399591941,514355.0,"제주특별자치도 제주시 구좌읍 중산간동로 2261, 1층",33.4715704,126.7844075,정좌표
484,우드스탁,한식,"제주특별자치도 제주시 구좌읍 월정7길 52, 1~2층",구좌읍,4.0,105.0,461.0,4.390476190476191,0.802582826965039,514729.0,"제주특별자치도 제주시 구좌읍 월정7길 52, 1~2층",33.5553068,126.7966793,정좌표
485,한라식당,한식,제주특별자치도 제주시 구좌읍 김녕로 99-1,구좌읍,4.0,13.0,60.5,4.653846153846154,0.8510928118360384,523429.0,제주특별자치도 제주시 구좌읍 김녕로 99-1,33.5542816,126.7488346,정좌표
486,비자림 양푼이 국수,기타,"제주특별자치도 제주시 구좌읍 비자림로 2235-2, 1층",구좌읍,4.0,7.0,28.5,4.071428571428571,0.9322272357358045,524329.0,"제주특별자치도 제주시 구좌읍 비자림로 2235-2, 1층",33.467852,126.7724183,정좌표
487,유니온제주,기타,"제주특별자치도 제주시 구좌읍 해맞이해안로 486, B103호",구좌읍,5.0,223.0,1104.0,4.95067264573991,0.1951829714818433,524357.0,"제주특별자치도 제주시 구좌읍 해맞이해안로 486, B103호",33.5291668,126.8538817,정좌표
488,바당지기,기타,"제주특별자치도 제주시 구좌읍 해맞이해안로 480, 1층",구좌읍,1.0,78.0,321.5,4.121794871794871,1.2278846170144135,524849.0,"제주특별자치도 제주시 구좌읍 해맞이해안로 480, 1층",33.5593822,126.7931782,정좌표
489,인손,기타,"제주특별자치도 제주시 구좌읍 세화4길 10, 1층",구좌읍,5.0,92.0,434.5,4.7228260869565215,0.7238637569685691,526257.0,"제주특별자치도 제주시 구좌읍 세화4길 10, 1층",33.5227733,126.8556461,정좌표
490,페어리제주,기타,"제주특별자치도 제주시 구좌읍 해맞이해안로 1486, 1층",구좌읍,5.0,71.0,312.0,4.394366197183099,0.8779663716214814,526467.0,"제주특별자치도 제주시 구좌읍 해맞이해안로 1486, 1층",33.5249042,126.8642192,정좌표
491,술의식물원,기타,"제주특별자치도 제주시 구좌읍 중산간동로 2253, 1층",구좌읍,5.0,66.0,301.5,4.568181818181818,0.748775223724941,526635.0,"제주특별자치도 제주시 구좌읍 중산간동로 2253, 1층",33.471814,126.7837769,정좌표
492,에그써티제주점,기타,"제주특별자치도 제주시 구좌읍 해맞이해안로 820, 2동 1층",구좌읍,5.0,24.0,119.0,4.958333333333333,0.20412414523193148,526803.0,"제주특별자치도 제주시 구좌읍 해맞이해안로 820, 2동 1층",33.5291668,126.8538817,정좌표
493,제주로움,경양식,"제주특별자치도 제주시 구좌읍 월정3길 14, 2층",구좌읍,5.0,89.0,436.0,4.898876404494382,0.28384309927336127,526879.0,"제주특별자치도 제주시 구좌읍 월정3길 14, 2층",33.5554342,126.7966183,정좌표
494,돌담넘는고양이,호프/통닭,"제주특별자치도 제주시 구좌읍 해맞이해안로 2478, 나동 1층",구좌읍,0.5,11.0,42.5,3.8636363636363638,1.8315418244051798,527079.0,"제주특별자치도 제주시 구좌읍 해맞이해안로 2478, 나동 1층",33.5291668,126.8538817,정좌표
495,철이네정육식당,식육(숯불구이),제주특별자치도 제주시 구좌읍 종달로 53,구좌읍,5.0,11.0,54.0,4.909090909090909,0.3015113445777637,527121.0,제주특별자치도 제주시 구좌읍 종달로 53,33.4934377,126.8967303,정좌표
496,월정리곳간,경양식,"제주특별자치도 제주시 구좌읍 해맞이해안로 584-2, 1층",구좌읍,4.0,32.0,153.5,4.796875,0.4727983782243896,527163.0,"제주특별자치도 제주시 구좌읍 해맞이해안로 584-2, 1층",33.5563575,126.8068338,정좌표
497,카페청굴물,기타,"제주특별자치도 제주시 구좌읍 김녕로1길 75-1, 1층",구좌읍,4.0,60.0,279.5,4.658333333333333,0.48268025232932465,527251.0,"제주특별자치도 제주시 구좌읍 김녕로1길 75-1, 1층",33.5577761,126.751232,정좌표
498,부가네얼큰이구좌세화점,호프/통닭,제주특별자치도 제주시 구좌읍 구좌로 8,구좌읍,4.0,4.0,15.5,3.875,0.6291528696058959,527391.0,제주특별자치도 제주시 구좌읍 구좌로 8,33.5215282,126.8574235,정좌표
499,넘은봄,한식,"제주특별자치도 제주시 구좌읍 김녕로1길 75-1, 1층",구좌읍,5.0,29.0,143.0,4.931034482758621,0.37139067635410367,527407.0,"제주특별자치도 제주시 구좌읍 김녕로1길 75-1, 1층",33.5577761,126.751232,정좌표
500,빗소리,일식,"제주특별자치도 제주시 구좌읍 김녕로 151, 1층",구좌읍,5.0,78.0,366.0,4.6923076923076925,0.5988667286144377,527487.0,"제주특별자치도 제주시 구좌읍 김녕로 151, 1층",33.5556556,126.7540181,정좌표
501,금송당,기타,"제주특별자치도 제주시 구좌읍 중산간동로 2262, 1층",구좌읍,4.0,17.0,80.0,4.705882352941177,0.3976031127822285,527671.0,"제주특별자치도 제주시 구좌읍 중산간동로 2262, 1층",33.4713153,126.7843218,정좌표
502,흑족발집,한식,제주특별자치도 제주시 구좌읍 일주동로 3141,구좌읍,4.0,31.0,136.5,4.403225806451613,0.9166911042685867,527725.0,제주특별자치도 제주시 구좌읍 일주동로 3141,33.5425771,126.8122604,정좌표
503,윤슬,기타,"제주특별자치도 제주시 구좌읍 김녕로17길 30, 1~2층",구좌읍,5.0,63.0,302.5,4.801587301587301,0.6060160924862296,528749.0,"제주특별자치도 제주시 구좌읍 김녕로17길 30, 1~2층",33.5578479,126.7544228,정좌표
504,곱창에미치다,한식,"제주특별자치도 제주시 한경면 두신로 39, 2동 1층",한경면,5.0,44.0,208.5,4.738636363636363,0.5549841435367021,529565.0,"제주특별자치도 제주시 한경면 두신로 39, 2동 1층",33.3468437,126.1823411,정좌표
505,모살왓,한식,제주특별자치도 제주시 한경면 두신로 21-28,한경면,5.0,52.0,211.5,4.0673076923076925,1.4653810524772306,529667.0,제주특별자치도 제주시 한경면 두신로 21-28,33.3446775,126.181486,정좌표
506,미식가,한식,제주특별자치도 제주시 한경면 노을해안로 1146,한경면,1.0,10.0,34.0,3.4,1.286683937707919,529777.0,제주특별자치도 제주시 한경면 노을해안로 1146,33.308255,126.1647061,정좌표
507,열두달,기타,"제주특별자치도 제주시 한경면 용수길 37, 1층",한경면,5.0,10.0,46.5,4.65,0.579750904364203,529797.0,"제주특별자치도 제주시 한경면 용수길 37, 1층",33.3223998,126.1701912,정좌표
508,웃뜨르항아리,기타,"제주특별자치도 제주시 한경면 중산간서로 3705, 1층",한경면,4.5,9.0,43.5,4.833333333333333,0.24999999999999997,529817.0,"제주특별자치도 제주시 한경면 중산간서로 3705, 1층",33.33543,126.2565711,정좌표
509,그린사이공,기타,"제주특별자치도 제주시 한경면 두신로 38, 1층",한경면,5.0,10.0,48.5,4.85,0.33747427885527653,529837.0,"제주특별자치도 제주시 한경면 두신로 38, 1층",33.3464024,126.1832343,정좌표
510,쉘브르,기타,"제주특별자치도 제주시 한경면 일주서로 4533-11, 1층",한경면,5.0,8.0,39.0,4.875,0.23145502494313794,529857.0,"제주특별자치도 제주시 한경면 일주서로 4533-11, 1층",33.3654338,126.1989556,정좌표
511,인디에어,기타,"제주특별자치도 제주시 한경면 두모11길 51, 1층",한경면,5.0,9.0,44.0,4.888888888888889,0.33333333333333337,530001.0,"제주특별자치도 제주시 한경면 두모11길 51, 1층",33.356885,126.1825953,정좌표
512,마루나,기타,"제주특별자치도 제주시 한경면 금등4길 11, 1층",한경면,5.0,10.0,47.0,4.7,0.34960294939005054,530021.0,"제주특별자치도 제주시 한경면 금등4길 11, 1층",33.3619265,126.195894,정좌표
513,당산봉,한식,제주특별자치도 제주시 한경면 고산로 59,한경면,5.0,9.0,40.5,4.5,0.7905694150420949,530041.0,제주특별자치도 제주시 한경면 고산로 59,33.306206,126.1786239,정좌표
514,휴식공간,한식,"제주특별자치도 제주시 한경면 낙수로 85, 1층",한경면,5.0,3.0,13.0,4.333333333333333,1.1547005383792515,530061.0,"제주특별자치도 제주시 한경면 낙수로 85, 1층",33.3283528,126.2307993,정좌표
515,제주돔베막국수,한식,제주특별자치도 제주시 한경면 고산로 35,한경면,5.0,65.0,299.5,4.607692307692307,0.8500565592042414,530253.0,제주특별자치도 제주시 한경면 고산로 35,33.3041465,126.1794537,정좌표
516,저지리498맛나게드시게,한식,제주특별자치도 제주시 한경면 중산간서로 3793,한경면,5.0,101.0,474.5,4.698019801980198,0.9112606869628254,530537.0,제주특별자치도 제주시 한경면 중산간서로 3793,33.3422665,126.2558086,정좌표
517,한라당몰국수,한식,제주특별자치도 제주시 한경면 중산간서로 3645,한경면,4.5,69.0,321.0,4.6521739130434785,0.5835007675916555,530977.0,제주특별자치도 제주시 한경면 중산간서로 3645,33.3301746,126.2550713,정좌표
518,한양동식당,한식,"제주특별자치도 제주시 한경면 용금로 501, 1층 2호",한경면,5.0,11.0,52.0,4.7272727272727275,0.4100997661323623,531257.0,"제주특별자치도 제주시 한경면 용금로 501, 1층 2호",33.3366069,126.2336296,정좌표
519,미온당,한식,제주특별자치도 제주시 한경면 중산간서로 3594,한경면,5.0,24.0,97.0,4.041666666666667,1.5528141820765196,531313.0,제주특별자치도 제주시 한경면 중산간서로 3594,33.3258701,126.2526613,정좌표
520,수월식당,한식,제주특별자치도 제주시 한경면 고산로 32,한경면,5.0,2.0,9.0,4.5,0.7071067811865476,531433.0,제주특별자치도 제주시 한경면 고산로 32,33.3039323,126.1797276,정좌표
521,지서개식당,기타,"제주특별자치도 제주시 한경면 한경해안로 77, 1층",한경면,5.0,21.0,92.0,4.380952380952381,1.0356732339976,531445.0,"제주특별자치도 제주시 한경면 한경해안로 77, 1층",33.3328723,126.1697983,정좌표
522,아방도르다,한식,"제주특별자치도 제주시 한경면 두신로 68, 1층",한경면,5.0,10.0,43.5,4.35,1.3343745934165394,531491.0,"제주특별자치도 제주시 한경면 두신로 68, 1층",33.3489619,126.182803,정좌표
523,뿌떡,분식,"제주특별자치도 제주시 한경면 용수1길 4, 1층",한경면,5.0,5.0,25.0,5.0,0.0,531651.0,"제주특별자치도 제주시 한경면 용수1길 4, 1층",33.3220484,126.1688595,정좌표
524,명동식도락,한식,"제주특별자치도 제주시 한경면 녹차분재로 530, 1층",한경면,5.0,9.0,41.0,4.555555555555555,0.6821127309893709,531661.0,"제주특별자치도 제주시 한경면 녹차분재로 530, 1층",33.3257082,126.2552516,정좌표
525,달아래팥,한식,"제주특별자치도 제주시 한경면 낙수로 148, 1층",한경면,5.0,9.0,43.0,4.777777777777778,0.44095855184409843,531821.0,"제주특별자치도 제주시 한경면 낙수로 148, 1층",33.3240679,126.2291082,정좌표
526,서쪽하늘,까페,"제주특별자치도 제주시 한경면 한장중길 24-3, 1층 제1호",한경면,4.0,10.0,49.0,4.9,0.31622776601683794,531841.0,"제주특별자치도 제주시 한경면 한장중길 24-3, 1층 제1호",33.289235,126.1662584,정좌표
527,물통식당,한식,제주특별자치도 제주시 한경면 명이5길 20,한경면,5.0,287.0,1391.0,4.846689895470384,0.441526101837519,531861.0,제주특별자치도 제주시 한경면 명이5길 20,33.3190367,126.2707855,정좌표
528,청수청년곱창,한식,"제주특별자치도 제주시 한경면 연명로 344, 1층",한경면,5.0,10.0,49.0,4.9,0.316227766016838,532449.0,"제주특별자치도 제주시 한경면 연명로 344, 1층",33.3020455,126.2589933,정좌표
529,가자고산,한식,제주특별자치도 제주시 한경면 용고로 76,한경면,3.0,5.0,12.0,2.4,1.7818529681205462,532469.0,제주특별자치도 제주시 한경면 용고로 76,33.3014513,126.1793106,정좌표
530,양가형제,경양식,"제주특별자치도 제주시 한경면 청수동8길 3, 1층",한경면,5.0,10.0,44.5,4.45,1.4033689623347254,532479.0,"제주특별자치도 제주시 한경면 청수동8길 3, 1층",33.3073725,126.2540944,정좌표
531,맛있는폴부엌,경양식,제주특별자치도 제주시 한경면 녹차분재로 568,한경면,5.0,10.0,48.0,4.8,0.4216370213557839,532499.0,제주특별자치도 제주시 한경면 녹차분재로 568,33.3244002,126.2558172,정좌표
532,황토가든,한식,"제주특별자치도 제주시 한경면 두조로 260, 1층",한경면,5.0,1.0,5.0,5.0,,532519.0,"제주특별자치도 제주시 한경면 두조로 260, 1층",33.3430426,126.2096635,정좌표
533,진달래식당,기타,"제주특별자치도 제주시 한경면 용수3길 38, 1층",한경면,5.0,10.0,50.0,5.0,0.0,532521.0,"제주특별자치도 제주시 한경면 용수3길 38, 1층",33.3246505,126.1659485,정좌표
534,수월봉가마솥순대국,한식,"제주특별자치도 제주시 한경면 고산서2길 18, 1층",한경면,5.0,9.0,44.0,4.888888888888889,0.33333333333333337,532601.0,"제주특별자치도 제주시 한경면 고산서2길 18, 1층",33.3007773,126.1777823,정좌표
535,저바다에누워,기타,"제주특별자치도 제주시 한경면 판조로 3-5, 제2동 1~2층",한경면,5.0,10.0,47.5,4.75,0.7905694150420949,532621.0,"제주특별자치도 제주시 한경면 판조로 3-5, 제2동 1~2층",33.351183,126.216621,정좌표
536,요나스,한식,"제주특별자치도 제주시 한경면 신한로 17, 1층",한경면,5.0,10.0,48.5,4.85,0.3374742788552765,532641.0,"제주특별자치도 제주시 한경면 신한로 17, 1층",33.3496635,126.185099,정좌표
537,판포어촌계직영펜션식당,한식,"제주특별자치도 제주시 한경면 일주서로 4542, 1층",한경면,5.0,16.0,71.5,4.46875,1.1898004034290792,532661.0,"제주특별자치도 제주시 한경면 일주서로 4542, 1층",33.3414039,126.1898997,정좌표
538,한질에칼국수,한식,제주특별자치도 제주시 한경면 두신로 76,한경면,5.0,11.0,53.0,4.818181818181818,0.6030226891555275,532695.0,제주특별자치도 제주시 한경면 두신로 76,33.3497362,126.1831059,정좌표
539,탐라반상,한식,제주특별자치도 제주시 한경면 녹차분재로 462,한경면,5.0,165.0,790.5,4.790909090909091,0.7907096366492711,532717.0,제주특별자치도 제주시 한경면 녹차분재로 462,33.3148365,126.2734488,정좌표
540,트레이712,경양식,"제주특별자치도 제주시 한경면 용금로 858, 1층",한경면,5.0,18.0,73.0,4.055555555555555,1.1617543641469048,533085.0,"제주특별자치도 제주시 한경면 용금로 858, 1층",33.3351221,126.226991,정좌표
541,채훈이네해장국,한식,제주특별자치도 제주시 한경면 두신로 69,한경면,5.0,218.0,1028.0,4.715596330275229,0.6681254210365886,533121.0,제주특별자치도 제주시 한경면 두신로 69,33.3493211,126.182527,정좌표
542,뚱보아저씨,한식,"제주특별자치도 제주시 한경면 중산간서로 3651, 1층",한경면,1.5,400.0,1780.5,4.45125,0.903625910965051,533583.0,"제주특별자치도 제주시 한경면 중산간서로 3651, 1층",33.3306389,126.2554594,정좌표
543,세가름,한식,"제주특별자치도 제주시 한경면 신한로 20, 나동",한경면,5.0,15.0,61.5,4.1,1.2130245551630732,534427.0,"제주특별자치도 제주시 한경면 신한로 20, 나동",33.349418,126.1850181,정좌표
544,아찌국밥,경양식,제주특별자치도 제주시 한경면 고산로 34,한경면,5.0,16.0,76.5,4.78125,0.4460474563690878,534459.0,제주특별자치도 제주시 한경면 고산로 34,33.3040485,126.1797177,정좌표
545,청은국수,경양식,"제주특별자치도 제주시 한경면 두신로 70, 1층",한경면,4.0,25.0,104.0,4.16,0.8129165598838132,534511.0,"제주특별자치도 제주시 한경면 두신로 70, 1층",33.3491053,126.1828064,정좌표
546,풍차와전복,한식,"제주특별자치도 제주시 한경면 두모5길 59, 1층",한경면,5.0,98.0,430.0,4.387755102040816,1.0686020645667784,534563.0,"제주특별자치도 제주시 한경면 두모5길 59, 1층",33.3564038,126.1821222,정좌표
547,바람과언덕,기타,"제주특별자치도 제주시 한경면 노을해안로 1203-4, 1층",한경면,2.0,9.0,33.0,3.6666666666666665,1.4142135623730951,534767.0,"제주특별자치도 제주시 한경면 노을해안로 1203-4, 1층",33.3071297,126.1684779,정좌표
548,중국집마씸,중국식,"제주특별자치도 제주시 한경면 두신로 78, 1층",한경면,5.0,121.0,527.5,4.359504132231405,1.0492519964556253,534785.0,"제주특별자치도 제주시 한경면 두신로 78, 1층",33.3498359,126.1832048,정좌표
549,고산함지박,한식,제주특별자치도 제주시 한경면 고락로 4,한경면,3.0,15.0,67.5,4.5,0.9819805060619656,535043.0,제주특별자치도 제주시 한경면 고락로 4,33.3033042,126.1801143,정좌표
550,대물식당,한식,"제주특별자치도 제주시 한경면 노을해안로 1169, 1층",한경면,4.0,63.0,285.5,4.531746031746032,0.8273208600220034,535077.0,"제주특별자치도 제주시 한경면 노을해안로 1169, 1층",33.308573,126.1657849,정좌표
551,제주오름과바당,한식,"제주특별자치도 제주시 한경면 녹차분재로 531, 1층",한경면,4.0,60.0,266.5,4.441666666666666,0.8929652880429999,535207.0,"제주특별자치도 제주시 한경면 녹차분재로 531, 1층",33.3244002,126.2558172,정좌표
552,돈뜰,식육(숯불구이),"제주특별자치도 제주시 한경면 녹차분재로 619, 1층",한경면,5.0,119.0,576.0,4.840336134453781,0.4411693490380917,535333.0,"제주특별자치도 제주시 한경면 녹차분재로 619, 1층",33.3257082,126.2552516,정좌표
553,아파트먼트커피,기타,"제주특별자치도 제주시 한경면 청수서2길 96, 1층",한경면,4.5,2.0,9.5,4.75,0.3535533905932738,535585.0,"제주특별자치도 제주시 한경면 청수서2길 96, 1층",33.3113329,126.2447042,정좌표
554,연리지가든,식육(숯불구이),"제주특별자치도 제주시 한경면 두조로 190-20, 다동 1층",한경면,5.0,96.0,384.5,4.005208333333333,1.5243545513579229,535589.0,"제주특별자치도 제주시 한경면 두조로 190-20, 다동 1층",33.3444986,126.2027639,정좌표
555,인판포,까페,제주특별자치도 제주시 한경면 일주서로 4533-21,한경면,5.0,10.0,42.0,4.2,0.8232726023485646,535781.0,제주특별자치도 제주시 한경면 일주서로 4533-21,33.3654338,126.1989556,정좌표
556,저지오름반점,중국식,제주특별자치도 제주시 한경면 중산간서로 3649,한경면,5.0,45.0,192.5,4.277777777777778,0.9265990819042823,535801.0,제주특별자치도 제주시 한경면 중산간서로 3649,33.3304855,126.2553218,정좌표
557,제비상회,한식,"제주특별자치도 제주시 한경면 신한로 45, 1층",한경면,5.0,20.0,93.0,4.65,1.0525657874176346,535895.0,"제주특별자치도 제주시 한경면 신한로 45, 1층",33.3484293,126.1876328,정좌표
558,백일,한식,제주특별자치도 제주시 한경면 두신로 88,한경면,5.0,8.0,35.5,4.4375,1.050085030570654,535935.0,제주특별자치도 제주시 한경면 두신로 88,33.3505996,126.1837067,정좌표
559,춤추는짜장,분식,"제주특별자치도 제주시 한경면 일주서로 4187, 1층 1호",한경면,5.0,5.0,22.5,4.5,0.5,535951.0,"제주특별자치도 제주시 한경면 일주서로 4187, 1층 1호",33.3402228,126.1818428,정좌표
560,가보카,한식,"제주특별자치도 제주시 한경면 명이2길 31, 1층",한경면,5.0,10.0,49.5,4.95,0.15811388300841886,535961.0,"제주특별자치도 제주시 한경면 명이2길 31, 1층",33.3173958,126.264702,정좌표
561,장수촌,한식,제주특별자치도 제주시 한경면 고산서2길 18,한경면,5.0,3.0,13.5,4.5,0.8660254037844386,535983.0,제주특별자치도 제주시 한경면 고산서2길 18,33.3007773,126.1777823,정좌표
562,이누팬,경양식,"제주특별자치도 제주시 한경면 고산로 33-3, 1층",한경면,5.0,7.0,33.5,4.785714285714286,0.5669467095138409,536226.0,"제주특별자치도 제주시 한경면 고산로 33-3, 1층",33.3038593,126.1789271,정좌표
563,바람과노을,기타,"제주특별자치도 제주시 한경면 노을해안로 1150, 2층",한경면,3.5,12.0,44.5,3.7083333333333335,1.1171866722289794,536262.0,"제주특별자치도 제주시 한경면 노을해안로 1150, 2층",33.3085269,126.1646779,정좌표
564,토리,한식,"제주특별자치도 제주시 한경면 녹차분재로 626, 1층",한경면,4.0,22.0,97.0,4.409090909090909,0.7177405625652733,536306.0,"제주특별자치도 제주시 한경면 녹차분재로 626, 1층",33.3244002,126.2558172,정좌표
565,더애월김치찌개전문점저지점,기타,제주특별자치도 제주시 한경면 저지12길 99,한경면,5.0,70.0,315.5,4.507142857142857,0.8490952437266709,537881.0,제주특별자치도 제주시 한경면 저지12길 99,33.3397466,126.261347,정좌표
566,노을안에풍차,기타,"제주특별자치도 제주시 한경면 한경해안로 360, 1층",한경면,5.0,21.0,95.5,4.5476190476190474,0.567995640492995,538053.0,"제주특별자치도 제주시 한경면 한경해안로 360, 1층",33.3368816,126.1647341,정좌표
567,해문달술,한식,"제주특별자치도 제주시 한경면 노을해안로 1174, 차귀낚시점 1층",한경면,5.0,17.0,85.0,5.0,0.0,538117.0,"제주특별자치도 제주시 한경면 노을해안로 1174, 차귀낚시점 1층",33.3080639,126.1655615,정좌표
568,우리집아점,한식,"제주특별자치도 제주시 한림읍 한림로 242, 1층",한림읍,5.0,90.0,414.5,4.605555555555555,0.6848867881695765,538181.0,"제주특별자치도 제주시 한림읍 한림로 242, 1층",33.387882,126.2332862,정좌표
569,몽실이네,한식,제주특별자치도 제주시 한림읍 한림로 669-1,한림읍,3.0,4.0,17.0,4.25,0.8660254037844385,538365.0,제주특별자치도 제주시 한림읍 한림로 669-1,33.414972,126.2645636,정좌표
570,모이모이,한식,제주특별자치도 제주시 한림읍 귀덕8길 39,한림읍,5.0,199.0,967.0,4.85929648241206,0.3662552892543067,538397.0,제주특별자치도 제주시 한림읍 귀덕8길 39,33.4406593,126.2898087,정좌표
571,칠일칠팔,한식,제주특별자치도 제주시 한림읍 문화길 5,한림읍,5.0,8.0,39.0,4.875,0.35355339059327373,538807.0,제주특별자치도 제주시 한림읍 문화길 5,33.4141919,126.2621603,정좌표
572,두마리찜닭두찜제주한림점,통닭(치킨),제주특별자치도 제주시 한림읍 한림중앙로 41,한림읍,5.0,10.0,46.0,4.6,0.7745966692414834,538825.0,제주특별자치도 제주시 한림읍 한림중앙로 41,33.4111115,126.2655863,정좌표
573,마당집,식육(숯불구이),"제주특별자치도 제주시 한림읍 한림로12길 1-4, 1층",한림읍,5.0,17.0,80.0,4.705882352941177,0.6859943405700355,538845.0,"제주특별자치도 제주시 한림읍 한림로12길 1-4, 1층",33.415472,126.2655641,정좌표
574,대문집,한식,제주특별자치도 제주시 한림읍 한림로 484,한림읍,5.0,10.0,39.5,3.95,1.7392527130926088,538883.0,제주특별자치도 제주시 한림읍 한림로 484,33.4026902,126.2519622,정좌표
575,돈지정가든,한식,제주특별자치도 제주시 한림읍 금악로 1-1,한림읍,3.5,3.0,12.0,4.0,0.8660254037844386,538903.0,제주특별자치도 제주시 한림읍 금악로 1-1,33.3574905,126.295638,정좌표
576,제주도민상회본점,한식,제주특별자치도 제주시 한림읍 한림로3길 8,한림읍,5.0,661.0,3054.0,4.620272314674735,0.884366192307235,538909.0,제주특별자치도 제주시 한림읍 한림로3길 8,33.4132616,126.260303,정좌표
577,돌갱이네집,호프/통닭,"제주특별자치도 제주시 한림읍 한림로 329-6, 1층",한림읍,5.0,10.0,49.0,4.9,0.316227766016838,540347.0,"제주특별자치도 제주시 한림읍 한림로 329-6, 1층",33.393627,126.2399044,정좌표
578,야미야미한림점,식육(숯불구이),제주특별자치도 제주시 한림읍 명랑로 10,한림읍,5.0,2.0,8.5,4.25,1.0606601717798212,540367.0,제주특별자치도 제주시 한림읍 명랑로 10,33.4144928,126.2659416,정좌표
579,고향숯불막창한림점,기타,"제주특별자치도 제주시 한림읍 한림로4길 31, 1층",한림읍,5.0,10.0,43.5,4.35,1.131616346451197,540371.0,"제주특별자치도 제주시 한림읍 한림로4길 31, 1층",33.4103808,126.2632295,정좌표
580,금능이모네,기타,"제주특별자치도 제주시 한림읍 금능길 55, 1층",한림읍,5.0,10.0,49.5,4.95,0.15811388300841886,540391.0,"제주특별자치도 제주시 한림읍 금능길 55, 1층",33.3881374,126.2294884,정좌표
581,누산타라,기타,"제주특별자치도 제주시 한림읍 한림로 649-1, 1층",한림읍,4.5,2.0,5.5,2.75,2.4748737341529163,540411.0,"제주특별자치도 제주시 한림읍 한림로 649-1, 1층",33.4140322,126.2626655,정좌표
582,제주코,기타,"제주특별자치도 제주시 한림읍 중산간서로 4494, 1층",한림읍,4.0,8.0,33.0,4.125,1.2174328963613794,540415.0,"제주특별자치도 제주시 한림읍 중산간서로 4494, 1층",33.3726752,126.2845786,정좌표
583,콩마루순두부짬뽕,기타,"제주특별자치도 제주시 한림읍 한림로 638, 1층",한림읍,3.5,10.0,41.5,4.15,1.4346892811104894,540435.0,"제주특별자치도 제주시 한림읍 한림로 638, 1층",33.4131707,126.2619205,정좌표
584,돈해상,기타,"제주특별자치도 제주시 한림읍 귀덕11길 39, 1층",한림읍,5.0,10.0,42.5,4.25,1.379412113103904,540455.0,"제주특별자치도 제주시 한림읍 귀덕11길 39, 1층",33.4461793,126.2960732,정좌표
585,사형제,횟집,"제주특별자치도 제주시 한림읍 한림상로 273, 1~2층",한림읍,3.0,7.0,28.5,4.071428571428571,1.7423301310929238,540475.0,"제주특별자치도 제주시 한림읍 한림상로 273, 1~2층",33.4224146,126.2663991,정좌표
586,오늘은고기한림점,식육(숯불구이),"제주특별자치도 제주시 한림읍 한림중앙로 46, 1층",한림읍,5.0,5.0,24.5,4.9,0.22360679774997894,540495.0,"제주특별자치도 제주시 한림읍 한림중앙로 46, 1층",33.4044889,126.2697728,정좌표
587,민경이네,한식,제주특별자치도 제주시 한림읍 비양도길 275,한림읍,5.0,5.0,25.0,5.0,0.0,540515.0,제주특별자치도 제주시 한림읍 비양도길 275,33.4064952,126.2311994,정좌표
588,수구레해장국5호점,한식,제주특별자치도 제주시 한림읍 한림로3길 8-9,한림읍,5.0,5.0,19.0,3.8,0.9082951062292476,540535.0,제주특별자치도 제주시 한림읍 한림로3길 8-9,33.4138845,126.260941,정좌표
589,새하네식탁,까페,"제주특별자치도 제주시 한림읍 한림해안로 460, 1층",한림읍,5.0,68.0,320.0,4.705882352941177,0.5547306332850467,540563.0,"제주특별자치도 제주시 한림읍 한림해안로 460, 1층",33.4367966,126.2704561,정좌표
590,이서순대국밥,한식,제주특별자치도 제주시 한림읍 한림해안로 162,한림읍,5.0,19.0,86.0,4.526315789473684,0.6966922684794659,540875.0,제주특별자치도 제주시 한림읍 한림해안로 162,33.4166615,126.2633377,정좌표
591,비양도,일식,제주특별자치도 제주시 한림읍 한림로 167,한림읍,4.0,21.0,87.0,4.142857142857143,0.8084376466811947,540967.0,제주특별자치도 제주시 한림읍 한림로 167,33.3860678,126.2258574,정좌표
592,독개물항,일식,"제주특별자치도 제주시 한림읍 한림로 478, 1층",한림읍,5.0,763.0,3320.5,4.351900393184797,1.1211195803414735,541303.0,"제주특별자치도 제주시 한림읍 한림로 478, 1층",33.4018706,126.2516959,정좌표
593,한림바다생태체험마을,일식,제주특별자치도 제주시 한림읍 한림해안로 200,한림읍,5.0,72.0,315.5,4.381944444444445,0.9622928002899261,544427.0,제주특별자치도 제주시 한림읍 한림해안로 200,33.4197809,126.2628316,정좌표
594,대금,한식,제주특별자치도 제주시 한림읍 옹포1길 6,한림읍,5.0,7.0,32.5,4.642857142857143,0.475594865605671,544735.0,제주특별자치도 제주시 한림읍 옹포1길 6,33.4025174,126.2510864,정좌표
595,뼈대감,한식,제주특별자치도 제주시 한림읍 한림중앙로 61-2,한림읍,5.0,70.0,325.0,4.642857142857143,0.8126841247018691,544763.0,제주특별자치도 제주시 한림읍 한림중앙로 61-2,33.4094157,126.2663542,정좌표
596,남성해장국,한식,제주특별자치도 제주시 한림읍 한림상로 230,한림읍,5.0,16.0,75.0,4.6875,0.5123475382979801,545075.0,제주특별자치도 제주시 한림읍 한림상로 230,33.4188203,126.268211,정좌표
597,금수강산바다장어,한식,제주특별자치도 제주시 한림읍 사가동길 17,한림읍,3.0,3.0,11.0,3.6666666666666665,1.1547005383792517,545151.0,제주특별자치도 제주시 한림읍 사가동길 17,33.4156209,126.2629994,정좌표
598,영림흑돼지가든,한식,제주특별자치도 제주시 한림읍 한수풀로 30,한림읍,4.5,21.0,96.5,4.595238095238095,0.5835033765765117,545163.0,제주특별자치도 제주시 한림읍 한수풀로 30,33.4177892,126.266104,정좌표
599,제주하늘집,한식,"제주특별자치도 제주시 한림읍 한림로 475, 지1층",한림읍,4.5,276.0,1262.5,4.574275362318841,1.0255417283695192,545255.0,"제주특별자치도 제주시 한림읍 한림로 475, 지1층",33.3989324,126.2421759,정좌표
600,페리카나한림분점,호프/통닭,제주특별자치도 제주시 한림읍 한림중앙로 3-1,한림읍,4.0,6.0,27.0,4.5,0.8366600265340756,546459.0,제주특별자치도 제주시 한림읍 한림중앙로 3-1,33.4143077,126.2649541,정좌표
601,한림족발,한식,"제주특별자치도 제주시 한림읍 한림상로 219, 1층",한림읍,5.0,24.0,117.5,4.895833333333333,0.2941149829376358,546483.0,"제주특별자치도 제주시 한림읍 한림상로 219, 1층",33.4178678,126.2679859,정좌표
602,도르르김밥,한식,"제주특별자치도 제주시 한림읍 일주서로 5903-6, 1층",한림읍,4.5,25.0,111.5,4.46,0.720532210707243,546583.0,"제주특별자치도 제주시 한림읍 일주서로 5903-6, 1층",33.4449056,126.2966756,정좌표
603,착한스시,일식,"제주특별자치도 제주시 한림읍 협재2길 18, 동양빌리지 1층",한림읍,5.0,236.0,1138.5,4.8241525423728815,0.5590734375256083,546683.0,"제주특별자치도 제주시 한림읍 협재2길 18, 동양빌리지 1층",33.3923698,126.2416493,정좌표
604,한림국수집,한식,제주특별자치도 제주시 한림읍 한림상로 158,한림읍,5.0,14.0,68.0,4.857142857142857,0.41271015292777846,547767.0,제주특별자치도 제주시 한림읍 한림상로 158,33.412296,126.2689984,정좌표
605,옹포바다,한식,"제주특별자치도 제주시 한림읍 옹포1길 24, 1층",한림읍,5.0,116.0,526.5,4.538793103448276,0.9558762473771644,547823.0,"제주특별자치도 제주시 한림읍 옹포1길 24, 1층",33.4038406,126.2517757,정좌표
606,투존치킨협재점,패스트푸드,제주특별자치도 제주시 한림읍 한림로 127,한림읍,5.0,10.0,45.5,4.55,0.4972144630058768,548327.0,제주특별자치도 제주시 한림읍 한림로 127,33.3852479,126.2212993,정좌표
607,씨리얼제주,기타,"제주특별자치도 제주시 한림읍 명랑로 26, 1층",한림읍,4.0,138.0,636.0,4.608695652173913,0.6665608717494462,548387.0,"제주특별자치도 제주시 한림읍 명랑로 26, 1층",33.414175,126.267655,정좌표
608,오태식해바라기치킨한림점,호프/통닭,"제주특별자치도 제주시 한림읍 대림4길 20, 101호",한림읍,4.0,12.0,53.0,4.416666666666667,0.6685579234215215,548717.0,"제주특별자치도 제주시 한림읍 대림4길 20, 101호",33.4194328,126.2661745,정좌표
609,백부장집,뷔페식,"제주특별자치도 제주시 한림읍 한림중앙로 64, 1층",한림읍,5.0,40.0,142.5,3.5625,1.6991230769927266,548783.0,"제주특별자치도 제주시 한림읍 한림중앙로 64, 1층",33.4089912,126.265851,정좌표
610,모래알,분식,제주특별자치도 제주시 한림읍 한림로 349-1,한림읍,5.0,55.0,245.0,4.454545454545454,0.7023289779483637,548907.0,제주특별자치도 제주시 한림읍 한림로 349-1,33.3945434,126.2409499,정좌표
611,국수와야식,한식,제주특별자치도 제주시 한림읍 한림로 668,한림읍,5.0,2.0,10.0,5.0,0.0,551985.0,제주특별자치도 제주시 한림읍 한림로 668,33.4144183,126.2645499,정좌표
612,한림옹포왕코다리전문점,한식,"제주특별자치도 제주시 한림읍 한림해안로 8, 103호",한림읍,5.0,48.0,227.0,4.729166666666667,0.6270356918591223,552033.0,"제주특별자치도 제주시 한림읍 한림해안로 8, 103호",33.3895279,126.2392884,정좌표
613,한림도새기,식육(숯불구이),"제주특별자치도 제주시 한림읍 한림상로 149, 1층 1호",한림읍,5.0,38.0,174.0,4.578947368421052,0.8504872672472197,552191.0,"제주특별자치도 제주시 한림읍 한림상로 149, 1층 1호",33.4120751,126.2679633,정좌표
614,땅땅치킨한림점,한식,"제주특별자치도 제주시 한림읍 한림상로 146, 1층",한림읍,3.0,16.0,72.0,4.5,0.6582805886043834,552313.0,"제주특별자치도 제주시 한림읍 한림상로 146, 1층",33.4116487,126.2681556,정좌표
615,푸른솔샘,한식,제주특별자치도 제주시 한림읍 중산간서로 4280,한림읍,4.5,31.0,121.0,3.903225806451613,1.287240943767649,552385.0,제주특별자치도 제주시 한림읍 중산간서로 4280,33.3568939,126.2948654,정좌표
616,황칠이야기,한식,"제주특별자치도 제주시 한림읍 옹포6길 5, 1층",한림읍,5.0,10.0,46.0,4.6,0.699205898780101,552461.0,"제주특별자치도 제주시 한림읍 옹포6길 5, 1층",33.4031346,126.2526637,정좌표
617,아이스데이,한식,"제주특별자치도 제주시 한림읍 명월성로 18, 1층",한림읍,4.5,10.0,47.0,4.7,0.53748384988657,552481.0,"제주특별자치도 제주시 한림읍 명월성로 18, 1층",33.504269,126.5410236,정좌표
618,지희네,탕류(보신용),제주특별자치도 제주시 한림읍 한림중앙로 26,한림읍,4.0,1.0,4.0,4.0,,552501.0,제주특별자치도 제주시 한림읍 한림중앙로 26,33.4123031,126.2646629,정좌표
619,파라토도스,기타,"제주특별자치도 제주시 한림읍 금능길 87, 2~3층",한림읍,5.0,373.0,1648.0,4.418230563002681,0.8586311188809215,552503.0,"제주특별자치도 제주시 한림읍 금능길 87, 2~3층",33.3891272,126.2325092,정좌표
620,수일통닭한림점,기타,"제주특별자치도 제주시 한림읍 한림로 475, 지하1층",한림읍,5.0,10.0,45.5,4.55,0.5502524673073059,558967.0,"제주특별자치도 제주시 한림읍 한림로 475, 지하1층",33.3989324,126.2421759,정좌표
621,캘리포니아,까페,"제주특별자치도 제주시 한림읍 금악남1길 8, 1층",한림읍,5.0,8.0,35.5,4.4375,0.9038607667745545,558987.0,"제주특별자치도 제주시 한림읍 금악남1길 8, 1층",33.3570393,126.2983035,정좌표
622,돌고래식당,기타,"제주특별자치도 제주시 한림읍 한림해안로 139, 한림항 선원복지회관 1층",한림읍,5.0,5.0,21.0,4.2,1.5247950681976903,559051.0,"제주특별자치도 제주시 한림읍 한림해안로 139, 한림항 선원복지회관 1층",33.4151701,126.2611176,정좌표
623,제주협재밥집술집홍대부부,기타,"제주특별자치도 제주시 한림읍 협재4길 9, 1층",한림읍,3.0,10.0,39.5,3.95,1.2122064363978786,559159.0,"제주특별자치도 제주시 한림읍 협재4길 9, 1층",33.3945924,126.2424977,정좌표
624,놀부네,한식,"제주특별자치도 제주시 한림읍 한림남길 4, 1층",한림읍,4.0,8.0,34.5,4.3125,0.5938674695827104,559179.0,"제주특별자치도 제주시 한림읍 한림남길 4, 1층",33.4116655,126.2685208,정좌표
625,기똥찬양꼬치,한식,"제주특별자치도 제주시 한림읍 한림로 687, 1층",한림읍,5.0,8.0,35.5,4.4375,0.5629958132298017,559199.0,"제주특별자치도 제주시 한림읍 한림로 687, 1층",33.4160916,126.2649401,정좌표
626,곱창스튜디오,한식,"제주특별자치도 제주시 한림읍 한림로19길 10, 1층",한림읍,5.0,8.0,38.5,4.8125,0.37201190457142236,559327.0,"제주특별자치도 제주시 한림읍 한림로19길 10, 1층",33.4172059,126.2637784,정좌표
627,수우동,한식,"제주특별자치도 제주시 한림읍 협재1길 11, 1층",한림읍,5.0,277.0,1145.5,4.135379061371841,1.020928259766068,559345.0,"제주특별자치도 제주시 한림읍 협재1길 11, 1층",33.3965751,126.2425147,정좌표
628,해물창고,한식,"제주특별자치도 제주시 한림읍 한림북동길 7, 2층 224호",한림읍,5.0,5.0,23.0,4.6,0.8944271909999159,565993.0,"제주특별자치도 제주시 한림읍 한림북동길 7, 2층 224호",33.4158571,126.2637709,정좌표
629,호텔샌드,까페,"제주특별자치도 제주시 한림읍 한림로 339, 1층",한림읍,5.0,10.0,43.0,4.3,0.7149203529842405,566003.0,"제주특별자치도 제주시 한림읍 한림로 339, 1층",33.3940557,126.2405094,정좌표
630,신스버거,기타,"제주특별자치도 제주시 한림읍 월령2길 2, 1층",한림읍,5.0,10.0,49.5,4.95,0.15811388300841892,566023.0,"제주특별자치도 제주시 한림읍 월령2길 2, 1층",33.3746401,126.2166188,정좌표
631,한림대덕,한식,제주특별자치도 제주시 한림읍 한림로5길 17,한림읍,5.0,1.0,5.0,5.0,,566043.0,제주특별자치도 제주시 한림읍 한림로5길 17,33.4167713,126.2642302,정좌표
632,비양,기타,"제주특별자치도 제주시 한림읍 옹포3길 25-2, 1층",한림읍,5.0,10.0,43.5,4.35,1.1067971810589328,566045.0,"제주특별자치도 제주시 한림읍 옹포3길 25-2, 1층",33.4053831,126.2520877,정좌표
633,장수골,한식,제주특별자치도 제주시 한림읍 한림상로 150,한림읍,5.0,8.0,34.0,4.25,0.8864052604279182,566065.0,제주특별자치도 제주시 한림읍 한림상로 150,33.4118152,126.2683931,정좌표
634,후원,한식,"제주특별자치도 제주시 한림읍 한림로 503, 1층",한림읍,5.0,10.0,43.0,4.3,1.3984117975602022,566081.0,"제주특별자치도 제주시 한림읍 한림로 503, 1층",33.4041634,126.2529269,정좌표
